     3.04           OBSERVATION DATA    M (MIXED)           RINEX VERSION / TYPE
HEADER CHANGED BY EPN CB ON 2021-12-28                      COMMENT
TO BE CONFORM WITH THE INFORMATION IN                       COMMENT
ftp://epncb.oma.be/pub/station/log/bme1.log                 COMMENT
                                                            COMMENT
CHC                 CHC                 19700101 000000 UTC PGM / RUN BY / DATE
gfzrnx-1.13-7761    FILE PROCESSING     20211222 000622 UTC COMMENT
BME1                                                        MARKER NAME
11209M002                                                   MARKER NUMBER
BMEDGS              BMEDGS                                  OBSERVER / AGENCY
5904C01658          CHC P5E             5.44,31/OCT/2019    REC # / TYPE / VERS
C19090010006        CHCC220GR2      CHCD                    ANT # / TYPE
        0.0000        0.0000        0.0000                  ANTENNA: DELTA H/E/N
  4082000.1385  1410145.3094  4678053.6452                  APPROX POSITION XYZ
C   13 C2I C5X C6I C7I D2I L2I L5X L6I L7I S2I S5X S6I S7I  SYS / # / OBS TYPES
E   13 C1X C5X C7X C8X D1X L1X L5X L7X L8X S1X S5X S7X S8X  SYS / # / OBS TYPES
G    7 C1C C2P D1C L1C L2P S1C S2P                          SYS / # / OBS TYPES
R    7 C1C C2P D1C L1C L2P S1C S2P                          SYS / # / OBS TYPES
HUACE ANT REFERENCEPOINT                                    COMMENT
 C1C    0.000 C1P    0.000 C2C    0.000 C2P    0.000        GLONASS COD/PHS/BIS
   111                                                      # OF SATELLITES
   C02  1343         208  1265  1343  1343         208  1265PRN / # OF OBS
        1343         208  1265                              PRN / # OF OBS
   C05  2861        2833  2833  2861  2861        2833  2833PRN / # OF OBS
        2861        2833  2833                              PRN / # OF OBS
   C06  1101        1101  1101  1101  1101        1101  1101PRN / # OF OBS
        1101        1101  1101                              PRN / # OF OBS
   C07  1159        1158  1158  1159  1159        1158  1158PRN / # OF OBS
        1159        1158  1158                              PRN / # OF OBS
   C09  1395        1394  1394  1395  1395        1394  1394PRN / # OF OBS
        1395        1394  1394                              PRN / # OF OBS
   C10  1398        1398  1398  1398  1398        1398  1398PRN / # OF OBS
        1398        1398  1398                              PRN / # OF OBS
   C11   764         764   764   764   764         764   764PRN / # OF OBS
         764         764   764                              PRN / # OF OBS
   C12   630         630   630   630   630         630   630PRN / # OF OBS
         630         630   630                              PRN / # OF OBS
   C13  1397        1397  1397  1397  1397        1397  1397PRN / # OF OBS
        1397        1397  1397                              PRN / # OF OBS
   C14   907         907   907   907   907         907   907PRN / # OF OBS
         907         907   907                              PRN / # OF OBS
   C16  1058        1058  1058  1058  1058        1058  1058PRN / # OF OBS
        1058        1058  1058                              PRN / # OF OBS
   C19  1046  1029  1046        1046  1046  1029  1046      PRN / # OF OBS
        1046  1029  1046                                    PRN / # OF OBS
   C20  1238  1234  1238        1238  1238  1234  1238      PRN / # OF OBS
        1238  1234  1238                                    PRN / # OF OBS
   C21   865   855   865         865   865   855   865      PRN / # OF OBS
         865   855   865                                    PRN / # OF OBS
   C22   998   983   998         998   998   983   998      PRN / # OF OBS
         998   983   998                                    PRN / # OF OBS
   C23   991   955   991         991   991   955   991      PRN / # OF OBS
         991   955   991                                    PRN / # OF OBS
   C24  1053  1022  1053        1053  1053  1022  1053      PRN / # OF OBS
        1053  1022  1053                                    PRN / # OF OBS
   C25  1029   943  1029        1029  1029   943  1029      PRN / # OF OBS
        1029   943  1029                                    PRN / # OF OBS
   C26  1080   995  1080        1080  1080   995  1080      PRN / # OF OBS
        1080   995  1080                                    PRN / # OF OBS
   C27  1289  1276  1289        1289  1289  1276  1289      PRN / # OF OBS
        1289  1276  1289                                    PRN / # OF OBS
   C28  1279  1177  1279        1279  1279  1177  1279      PRN / # OF OBS
        1279  1177  1279                                    PRN / # OF OBS
   C29  1197  1127  1197        1197  1197  1127  1197      PRN / # OF OBS
        1197  1127  1197                                    PRN / # OF OBS
   C30  1286  1185  1285        1286  1286  1185  1285      PRN / # OF OBS
        1286  1185  1285                                    PRN / # OF OBS
   C32  1071  1067  1071        1071  1071  1067  1071      PRN / # OF OBS
        1071  1067  1071                                    PRN / # OF OBS
   C33   946   945   946         946   946   945   946      PRN / # OF OBS
         946   945   946                                    PRN / # OF OBS
   C34   660   591   660         660   660   591   660      PRN / # OF OBS
         660   591   660                                    PRN / # OF OBS
   C35   841   730   841         841   841   730   841      PRN / # OF OBS
         841   730   841                                    PRN / # OF OBS
   C36   942   942   942         942   942   942   942      PRN / # OF OBS
         942   942   942                                    PRN / # OF OBS
   C37  1105  1101  1105        1105  1105  1101  1105      PRN / # OF OBS
        1105  1101  1105                                    PRN / # OF OBS
   C38   951   898   951         951   951   898   951      PRN / # OF OBS
         951   898   951                                    PRN / # OF OBS
   C39   991   901   991         991   991   901   991      PRN / # OF OBS
         991   901   991                                    PRN / # OF OBS
   C40   971   918   971         971   971   918   971      PRN / # OF OBS
         971   918   971                                    PRN / # OF OBS
   C41   978   968   978         978   978   968   978      PRN / # OF OBS
         978   968   978                                    PRN / # OF OBS
   C42   890   808   890         890   890   808   890      PRN / # OF OBS
         890   808   890                                    PRN / # OF OBS
   C43   982   921   982         982   982   921   982      PRN / # OF OBS
         982   921   982                                    PRN / # OF OBS
   C44   326   311   326         326   326   311   326      PRN / # OF OBS
         326   311   326                                    PRN / # OF OBS
   C45   935   875   935         935   935   875   935      PRN / # OF OBS
         935   875   935                                    PRN / # OF OBS
   C46   968   966   968         968   968   966   968      PRN / # OF OBS
         968   966   968                                    PRN / # OF OBS
   C60  2853        2813        2853  2853        2813      PRN / # OF OBS
        2853        2813                                    PRN / # OF OBS
   E01   675   650   675   675   675   675   650   675   675PRN / # OF OBS
         675   650   675   675                              PRN / # OF OBS
   E02  1405  1389  1405  1405  1405  1405  1389  1405  1405PRN / # OF OBS
        1405  1389  1405  1405                              PRN / # OF OBS
   E03  1276  1248  1276  1276  1276  1276  1248  1276  1276PRN / # OF OBS
        1276  1248  1276  1276                              PRN / # OF OBS
   E04   965   854   965   965   965   965   854   965   965PRN / # OF OBS
         965   854   965   965                              PRN / # OF OBS
   E05  1117  1056  1116  1116  1117  1117  1056  1116  1116PRN / # OF OBS
        1117  1056  1116  1116                              PRN / # OF OBS
   E07   798   787   798   798   798   798   787   798   798PRN / # OF OBS
         798   787   798   798                              PRN / # OF OBS
   E08  1091  1061  1091  1091  1091  1091  1061  1091  1091PRN / # OF OBS
        1091  1061  1091  1091                              PRN / # OF OBS
   E09   989   983   989   989   989   989   983   989   989PRN / # OF OBS
         989   983   989   989                              PRN / # OF OBS
   E11  1103   959  1102  1102  1103  1103   959  1102  1102PRN / # OF OBS
        1103   959  1102  1102                              PRN / # OF OBS
   E12   533   506   533   533   533   533   506   533   533PRN / # OF OBS
         533   506   533   533                              PRN / # OF OBS
   E13  1073  1060  1073  1073  1073  1073  1060  1073  1073PRN / # OF OBS
        1073  1060  1073  1073                              PRN / # OF OBS
   E15  1466  1397  1466  1466  1466  1466  1397  1466  1466PRN / # OF OBS
        1466  1397  1466  1466                              PRN / # OF OBS
   E19   512   462   512   512   512   512   462   512   512PRN / # OF OBS
         512   462   512   512                              PRN / # OF OBS
   E21   731   725   731   731   731   731   725   731   731PRN / # OF OBS
         731   725   731   731                              PRN / # OF OBS
   E24   902   894   902   902   902   902   894   902   902PRN / # OF OBS
         902   894   902   902                              PRN / # OF OBS
   E25  1213  1179  1213  1213  1213  1213  1179  1213  1213PRN / # OF OBS
        1213  1179  1213  1213                              PRN / # OF OBS
   E26   536   533   536   536   536   536   533   536   536PRN / # OF OBS
         536   533   536   536                              PRN / # OF OBS
   E27  1031  1031  1031  1031  1031  1031  1031  1031  1031PRN / # OF OBS
        1031  1031  1031  1031                              PRN / # OF OBS
   E30  1154  1141  1154  1154  1154  1154  1141  1154  1154PRN / # OF OBS
        1154  1141  1154  1154                              PRN / # OF OBS
   E31   683   635   683   683   683   683   635   683   683PRN / # OF OBS
         683   635   683   683                              PRN / # OF OBS
   E33   304   299   304   304   304   304   299   304   304PRN / # OF OBS
         304   299   304   304                              PRN / # OF OBS
   E36  1409  1384  1409  1409  1409  1409  1384  1409  1409PRN / # OF OBS
        1409  1384  1409  1409                              PRN / # OF OBS
   G01   941   928   941   941   928   941   928            PRN / # OF OBS
   G02  1160  1145  1160  1160  1145  1160  1145            PRN / # OF OBS
   G03   862   854   862   862   854   862   854            PRN / # OF OBS
   G04   936   917   936   936   917   936   917            PRN / # OF OBS
   G05  1109  1106  1109  1109  1106  1109  1106            PRN / # OF OBS
   G06  1112  1105  1112  1112  1105  1112  1105            PRN / # OF OBS
   G07   968   944   968   968   944   968   944            PRN / # OF OBS
   G08  1010   998  1010  1010   998  1010   998            PRN / # OF OBS
   G09   864   854   864   864   854   864   854            PRN / # OF OBS
   G10  1052  1046  1052  1052  1046  1052  1046            PRN / # OF OBS
   G12   862   851   862   862   851   862   851            PRN / # OF OBS
   G13   966   936   966   966   936   966   936            PRN / # OF OBS
   G14  1054  1049  1054  1054  1049  1054  1049            PRN / # OF OBS
   G15  1038  1023  1038  1038  1023  1038  1023            PRN / # OF OBS
   G16  1104  1084  1104  1104  1084  1104  1084            PRN / # OF OBS
   G17  1156  1138  1156  1156  1138  1156  1138            PRN / # OF OBS
   G18   981   973   981   981   973   981   973            PRN / # OF OBS
   G19  1129  1121  1129  1129  1121  1129  1121            PRN / # OF OBS
   G20  1105  1074  1105  1105  1074  1105  1074            PRN / # OF OBS
   G21   947   922   947   947   922   947   922            PRN / # OF OBS
   G23  1126  1120  1126  1126  1120  1126  1120            PRN / # OF OBS
   G24   912   867   912   912   867   912   867            PRN / # OF OBS
   G25   849   839   849   849   839   849   839            PRN / # OF OBS
   G26  1039  1026  1039  1039  1026  1039  1026            PRN / # OF OBS
   G29   929   915   929   929   915   929   915            PRN / # OF OBS
   G30   846   839   846   846   839   846   839            PRN / # OF OBS
   G31  1118  1105  1118  1118  1105  1118  1105            PRN / # OF OBS
   G32  1148  1143  1148  1148  1143  1148  1143            PRN / # OF OBS
   R01   573   573   573   573   573   573   573            PRN / # OF OBS
   R02  1003  1003  1003  1003  1003  1003  1003            PRN / # OF OBS
   R03   901   900   901   901   900   901   900            PRN / # OF OBS
   R04  1131  1131  1131  1131  1131  1131  1131            PRN / # OF OBS
   R05  1239  1239  1239  1239  1239  1239  1239            PRN / # OF OBS
   R06  1164        1164  1164        1164                  PRN / # OF OBS
   R07  1097  1097  1097  1097  1097  1097  1097            PRN / # OF OBS
   R08   988   988   988   988   988   988   988            PRN / # OF OBS
   R09  1010  1009  1010  1010  1009  1010  1009            PRN / # OF OBS
   R10  1159        1159  1159        1159                  PRN / # OF OBS
   R12  1194  1194  1194  1194  1194  1194  1194            PRN / # OF OBS
   R13   753   752   753   753   752   753   752            PRN / # OF OBS
   R14   854   854   854   854   854   854   854            PRN / # OF OBS
   R15  1033  1033  1033  1033  1033  1033  1033            PRN / # OF OBS
   R17  1022  1022  1022  1022  1022  1022  1022            PRN / # OF OBS
   R18  1007  1007  1007  1007  1007  1007  1007            PRN / # OF OBS
   R19   832   832   832   832   832   832   832            PRN / # OF OBS
   R20  1081  1081  1081  1081  1081  1081  1081            PRN / # OF OBS
   R21  1265  1265  1265  1265  1265  1265  1265            PRN / # OF OBS
   R22   969   968   969   969   968   969   968            PRN / # OF OBS
   R23   961         961   961         961                  PRN / # OF OBS
   R24  1030  1030  1030  1030  1030  1030  1030            PRN / # OF OBS
    30.000                                                  INTERVAL
  2021    12    21     0     0    0.0000000     GPS         TIME OF FIRST OBS
  2021    12    21    23    59   30.0000000     GPS         TIME OF LAST OBS
                                                            END OF HEADER
> 2021 12 21 00 00 00.0000000  0 44
C02  40513010.617                    40512999.359    40513005.250       65094.980   210961856.282                   171423756.726   163129086.542          31.000                          36.000          39.000
C05  39019599.211                    39019588.855    39019595.699       65106.652   203185251.981                   165104647.070   157115746.243          36.000                          38.000          41.000
C06  40676155.586                    40676142.586    40676151.957        1556.082   211811408.297                   172114073.120   163786016.631          35.000                          34.000          37.000
C09  41565146.484                    41565134.020    41565145.824        1581.469   216440618.465                   175875688.439   167365619.068          33.000                          29.000          35.000
C11  22205531.891                    22205521.652    22205530.906         755.461   115630062.323                    93958855.499    89412502.368          50.000                          51.000          53.000
C12  22606721.195                    22606710.289    22606719.891       63620.793   117719164.630                    95656422.955    91027928.993          49.000                          50.000          52.000
C13  39874801.609                    39874794.086    39874804.969       64191.480   207638571.679                   168723323.096   160559337.587          39.000                          34.000          39.000
C14  26836037.336                    26836025.863    26836035.227        3089.742   139742289.940                   113552009.398   108057598.538          32.000                          34.000          35.000
C16  40724423.609                    40724415.371    40724426.266        1402.293   212062763.990                   172318329.463   163980390.421          36.000                          33.000          38.000
C21  23011052.062    23011048.516    23011039.020                         969.688   119824607.434    90300289.795    97367254.902                          50.000          37.000          50.000
C22  24376114.438    24376107.027    24376100.070                       63408.918   126932844.271    95657079.807   103143284.277                          45.000          32.000          46.000
C23  25553642.984    25553634.609    25553626.441                       63905.922   133064518.229   100277912.055   108125751.683                          40.000          29.000          41.000
C25  26300441.547    26300438.457    26300433.281                       62261.320   136953286.790   103208525.789   111285719.862                          39.000          26.000          38.000
C34  21778381.727    21778380.258    21778375.090                       65049.070   113405785.125    85463047.792    92151466.135                          53.000          40.000          53.000
C37  26839415.547    26839417.230    26839410.902                         702.234   139759885.771   105323612.422   113566329.847                          37.000          23.000          37.000
C39  40270096.656    40270092.227    40270086.629                        1224.016   209696973.062   158028477.276   170395921.650                          37.000          26.000          38.000
C42  25320335.609    25320343.520    25320336.754                        2963.422   131849643.561    99362447.834   107138633.454                          41.000          29.000          42.000
C43  23832371.391    23832370.387    23832363.523                        1867.070   124101426.270    93523321.981   100842567.124                          46.000          33.000          46.000
C44  24006240.062    24006237.648    24006231.719                       62638.559   125006823.738    94205662.591   101578263.084                          44.000          32.000          44.000
C60  40578993.617                    40578970.238                       65023.871   211305517.135                   171702901.711                          36.000                          38.000
E04  28872589.789                    28872593.398    28872593.816        2568.035   151726484.862                   116257966.699   114780113.735          34.000                          39.000          39.000
E11  23854093.828    23854090.250    23854094.051    23854094.160        1430.270   125354118.266    93608575.494    96050563.054    94829584.048          45.000          30.000          45.000          45.000
E12  21966700.477    21966698.289    21966701.090    21966701.301       64783.242   115435806.319    86202041.616    88450823.206    87326453.189          49.000          36.000          52.000          53.000
E19  26018751.281    26018751.059    26018754.066    26018754.457        1740.641   136729462.123   102103152.673   104766741.300   103434967.271          40.000          27.000          42.000          43.000
E24  25798040.734    25798041.391    25798043.078    25798043.836       62725.750   135569613.846   101237018.831   103878024.128   102557542.259          49.000          33.000          50.000          50.000
E25  25742526.867    25742528.363    25742530.641    25742531.090       65502.145   135277885.406   101019194.971   103654492.375   102336857.953          47.000          34.000          49.000          49.000
E33  26235161.453    26235160.508    26235163.691    26235164.141       62941.930   137866719.514   102952419.993   105638150.645   104295301.598          45.000          32.000          47.000          47.000
G08  22038564.000    22038571.691        2122.168   115813428.227    90244275.604          47.000          45.000
G10  20878632.078    20878638.469         516.422   109718090.147    85494558.324          55.000          50.000
G15  24179276.234    24179280.328       63666.043   127062904.122    99010123.202          40.000          36.000
G16  21989544.664    21989547.953       62529.922   115555729.803    90043526.172          48.000          39.000
G18  23131834.781    23131838.719       62154.898   121558557.517    94721036.582          41.000          42.000
G21  24105616.281    24105620.238        2209.574   126675802.161    98708499.692          35.000          20.000
G23  21207966.375    21207970.766       63646.395   111448574.137    86843119.970          49.000          48.000
G26  24189268.617    24189276.848       61477.895   127115369.382    99051050.740          39.000          36.000
G32  25609205.477    25609211.891        2775.262   134577175.890   104865437.042          36.000          33.000
R04  21424537.258    21424549.723       63143.176   114727435.339    89232518.188          49.000          48.000
R05  20509749.094    20509759.168        1657.969   109636384.447    85272793.019          53.000          51.000
R06  23698418.664                        4124.250   126459328.314                          31.000
R10  23144602.930                       61048.230   123373737.312                          43.000
R12  23242716.000    23242727.254        1985.605   124158401.040    96567695.318          44.000          44.000
R19  23386932.250    23386942.195       61922.945   125104297.490    97303396.223          31.000          39.000
R20  19774393.633    19774405.398       64405.938   105742488.647    82244314.132          44.000          52.000
R21  21526084.164    21526094.527        2247.363   115190372.952    89592611.787          49.000          47.000
> 2021 12 21 00 00 30.0000000  0 44
C02  40515552.586                    40515541.496    40515547.223       65094.629   210975093.092                   171434512.219   163139322.073          31.000                          35.000          39.000
C05  39022072.734                    39022062.574    39022069.555       65106.473   203198134.230                   165115114.956   157125707.621          36.000                          38.000          41.000
C06  40667196.148                    40667184.098    40667193.137        1553.672   211764759.842                   172076167.443   163749945.113          34.000                          34.000          36.000
C09  41556037.125                    41556024.258    41556036.676        1580.898   216393183.109                   175837143.295   167328939.026          34.000                          29.000          34.000
C11  22201202.742                    22201192.270    22201201.520         747.512   115607518.530                    93940536.831    89395070.085          50.000                          50.000          53.000
C12  22617779.820                    22617768.582    22617778.281       63612.328   117776747.979                    95703214.137    91072456.083          49.000                          51.000          52.000
C13  39882545.781                    39882537.664    39882548.477       64192.230   207678895.041                   168756089.139   160590518.165          39.000                          35.000          39.000
C14  26818231.414                    26818219.781    26818229.402        3091.762   139649567.877                   113476665.132   107985899.959          32.000                          33.000          34.000
C16  40716354.688                    40716346.086    40716356.902        1399.031   212020746.133                   172284186.525   163947899.561          34.000                          35.000          38.000
C21  23005511.984    23005508.051    23005498.781                         953.652   119795757.989    90278548.742    97343812.368                          51.000          38.000          50.000
C22  24388411.703    24388404.977    24388397.531                       63394.004   126996880.437    95705337.734   103195318.906                          45.000          32.000          46.000
C23  25563075.805    25563066.945    25563059.285                       63891.641   133113636.870   100314928.071   108165664.597                          41.000          28.000          42.000
C25  26319316.320    26319313.539    26319308.160                       62258.289   137051573.587   103282595.126   111365585.923                          39.000          25.000          38.000
C34  21781216.414    21781215.012    21781209.684                       65038.965   113420545.406    85474171.202    92163460.072                          53.000          39.000          52.000
C37  26835413.508    26835415.781    26835409.258                         686.895   139739047.692   105307908.754   113549397.181                          36.000          24.000          37.000
C39  40263056.844    40263052.852    40263047.250                        1219.684   209660316.690   158000852.903   170366135.368                          36.000          26.000          38.000
C42  25303274.594    25303282.258    25303275.410                        2959.418   131760800.467    99295495.329   107066441.179                          43.000          29.000          42.000
C43  23821628.727    23821627.711    23821620.898                        1862.188   124045486.912    93481165.845   100797111.817                          46.000          33.000          46.000
C44  24022949.164    24022946.836    24022940.977                       62632.867   125093832.849    94271232.997   101648965.094                          44.000          31.000          44.000
C60  40581943.391                    40581920.523                       65023.867   211320880.389                   171715385.607                          36.000                          39.000
E04  28857921.078                    28857925.055    28857925.480        2570.973   151649402.054                   116198903.245   114721801.085          35.000                          38.000          38.000
E11  23845940.195    23845937.023    23845940.617    23845940.797        1426.223   125311272.194    93576580.067    96017732.957    94797171.290          44.000          30.000          45.000          45.000
E12  21971015.703    21971014.012    21971016.594    21971016.738       64776.879   115458484.089    86218976.321    88468199.684    87343608.773          49.000          37.000          53.000          53.000
E19  26008841.047    26008840.980    26008843.824    26008844.344        1731.309   136677383.894   102064263.114   104726837.223   103395570.445          40.000          26.000          42.000          43.000
E24  25814111.438    25814111.887    25814113.945    25814114.504       62716.176   135654065.890   101300083.659   103942734.117   102621429.667          48.000          33.000          50.000          51.000
E25  25742763.258    25742764.582    25742767.020    25742767.453       65487.098   135279127.522   101020122.528   103655444.122   102337797.607          47.000          32.000          49.000          49.000
E33  26249976.688    26249976.012    26249978.926    26249979.387       62939.605   137944574.390   103010558.339   105697805.658   104354198.283          44.000          31.000          47.000          47.000
G08  22026475.008    22026482.438        2113.160   115749897.992    90194771.529          47.000          45.000
G10  20875735.625    20875742.070         498.227   109702869.708    85482698.243          56.000          49.000
G15  24190006.625    24190010.434       63646.875   127119291.174    99054061.177          39.000          36.000
G16  22006747.648    22006751.031       62515.316   115646131.424    90113968.985          49.000          39.000
G18  23151147.594    23151151.742       62151.137   121660047.238    94800119.466          41.000          42.000
G21  24093016.961    24093020.820        2204.574   126609591.040    98656906.628          36.000          19.000
G23  21218802.961    21218807.441       63628.961   111505522.826    86887495.582          50.000          48.000
G26  24212441.453    24212449.305       61475.879   127237140.862    99145937.582          38.000          38.000
G32  25593352.648    25593359.621        2778.336   134493870.429   104800523.655          37.000          34.000
R04  21438011.555    21438023.797       63118.449   114799591.186    89288639.415          49.000          48.000
R05  20500513.312    20500524.285        1633.340   109587014.882    85234394.480          53.000          51.000
R06  23675235.633                        4122.871   126335624.026                          31.000
R10  23169877.695                       61041.770   123508466.563                          42.000
R12  23231624.734    23231635.746        1964.457   124099150.276    96521611.363          45.000          43.000
R19  23407207.195    23407217.023       61918.777   125212753.435    97387750.856          33.000          39.000
R20  19780767.398    19780779.031       64393.988   105776570.632    82270822.345          44.000          52.000
R21  21513501.336    21513511.559        2241.527   115123039.282    89540241.152          49.000          47.000
> 2021 12 21 00 01 00.0000000  0 44
C02  40518094.883                    40518084.391    40518089.992       65094.867   210988334.513                   171445271.967   163149561.172          30.000                          35.000          38.000
C05  39024548.086                    39024537.738    39024544.594       65106.473   203211022.771                   165125587.961   157135673.866          36.000                          38.000          41.000
C06  40658250.906                    40658238.645    40658248.000        1551.746   211718179.252                   172038316.883   163713926.033          34.000                          33.000          37.000
C09  41546931.867                    41546919.777    41546931.293        1580.055   216345772.649                   175798618.395   167292278.233          33.000                          30.000          34.000
C11  22196918.273                    22196908.168    22196917.336         739.914   115585210.263                    93922409.534    89377819.915          50.000                          50.000          52.000
C12  22628886.500                    22628875.363    22628885.031       63604.133   117834584.043                    95750210.675    91117178.596          49.000                          50.000          52.000
C13  39890283.734                    39890276.344    39890287.219       64193.402   207719191.837                   168788833.580   160621678.217          39.000                          35.000          40.000
C14  26800414.555                    26800402.215    26800412.395        3093.930   139556788.578                   113401274.315   107914157.071          31.000                          34.000          35.000
C16  40708303.992                    40708295.414    40708306.348        1396.094   211978824.644                   172250121.899   163915483.216          35.000                          35.000          38.000
C21  23000063.875    23000060.141    23000050.633                         937.828   119767388.143    90257169.116    97320759.551                          51.000          37.000          50.000
C22  24400794.008    24400787.293    24400780.172                       63379.570   127061359.037    95753929.080   103247713.040                          46.000          32.000          46.000
C23  25572589.742    25572581.590    25572573.750                       63877.727   133163181.790   100352265.314   108205923.902                          40.000          28.000          42.000
C25  26338208.008    26338205.027    26338199.691                       62255.840   137149946.528   103356729.358   111445521.995                          37.000          27.000          39.000
C34  21784108.633    21784107.406    21784102.156                       65029.117   113435607.584    85485522.132    92175699.325                          53.000          40.000          53.000
C37  26831497.711    26831500.461    26831493.613                         672.211   139718658.867   105292543.648   113532829.592                          37.000          23.000          38.000
C39  40256041.383    40256037.859    40256032.273                        1215.613   209623788.406   157973325.054   170336453.156                          36.000          25.000          39.000
C42  25286235.570    25286243.652    25286236.746                        2955.809   131672075.635    99228631.949   106994345.008                          42.000          30.000          42.000
C43  23810914.031    23810912.773    23810905.805                        1857.730   123989691.098    93439117.893   100751773.157                          46.000          33.000          46.000
C44  24039690.938    24039688.273    24039682.344                       62627.539   125181009.636    94336929.784   101719803.370                          45.000          31.000          44.000
C60  40584894.727                    40584871.324                       65024.020   211336245.954                   171727871.391                          36.000                          39.000
E04  28843235.281                    28843238.523    28843239.027        2574.348   151572224.238                   116139766.965   114663416.540          36.000                          38.000          39.000
E11  23837810.125    23837806.867    23837810.547    23837810.727        1422.301   125268548.521    93544676.028    95984996.646    94764851.116          45.000          30.000          45.000          45.000
E12  21975367.070    21975365.145    21975367.828    21975367.965       64770.859   115481349.950    86236051.479    88485720.285    87360906.655          49.000          36.000          52.000          53.000
E19  25998984.219    25998983.902    25998987.086    25998987.539        1722.012   136625586.427   102025583.220   104687148.271   103356386.020          40.000          27.000          42.000          43.000
E24  25830236.305    25830236.762    25830238.832    25830239.430       62706.902   135738802.682   101363361.118   104007662.287   102685532.478          48.000          32.000          50.000          51.000
E25  25743084.906    25743086.297    25743088.734    25743089.207       65472.312   135280818.546   101021385.310   103656739.847   102339076.854          47.000          32.000          49.000          50.000
E33  26264805.008    26264803.898    26264806.965    26264807.465       62937.758   138022495.822   103068746.431   105757511.691   104413145.342          44.000          32.000          47.000          48.000
G08  22014436.625    22014444.398        2104.352   115686636.810    90145477.104          47.000          45.000
G10  20872942.766    20872948.840         480.395   109688192.909    85471261.794          55.000          49.000
G15  24200845.078    24200849.074       63628.145   127176248.619    99098443.615          40.000          36.000
G16  22024032.875    22024036.402       62501.191   115736967.355    90184750.227          47.000          39.000
G18  23170481.305    23170486.098       62147.598   121761648.929    94879289.600          41.000          41.000
G21  24080444.289    24080448.602        2200.039   126543522.216    98605424.472          37.000          21.000
G23  21229739.219    21229743.668       63611.902   111562992.481    86932277.130          48.000          48.000
G26  24235624.383    24235632.371       61474.348   127358969.313    99240868.807          38.000          35.000
G32  25577481.547    25577488.582        2781.883   134410468.644   104735535.263          36.000          32.000
R04  21451624.094    21451635.852       63094.246   114872483.342    89345333.315          48.000          48.000
R05  20491415.383    20491426.469        1609.004   109538381.358    85196568.416          53.000          51.000
R06  23652061.273                        4121.914   126211959.956                          30.000
R10  23195187.766                       61035.980   123643382.952                          42.000
R12  23220650.766    23220661.844        1943.582   124040533.357    96476020.421          45.000          44.000
R19  23427501.273    23427511.367       61915.613   125321317.529    97472189.575          33.000          40.000
R20  19787207.391    19787219.301       64382.312   105811009.976    82297608.504          43.000          53.000
R21  21500950.609    21500960.578        2236.102   115055876.627    89488003.540          49.000          47.000
> 2021 12 21 00 01 30.0000000  0 43
C05  39027023.633                    39027013.598    39027020.570       65106.129   203223914.816                   165136063.810   157145642.820          36.000                          38.000          40.000
C06  40649318.273                    40649305.902    40649315.871        1549.051   211671664.485                   172000519.820   163677957.879          34.000                          32.000          38.000
C09  41537831.945                    41537819.492    41537830.387        1579.086   216298384.695                   175760111.784   167255634.833          34.000                          30.000          34.000
C11  22192679.281                    22192668.980    22192678.227         731.664   115563135.621                    93904472.086    89360750.398          50.000                          51.000          53.000
C12  22640041.414                    22640030.270    22640039.750       63595.430   117892670.109                    95797410.356    91162094.419          48.000                          50.000          52.000
C13  39898017.461                    39898009.191    39898020.352       64194.203   207759459.241                   168821554.152   160652815.511          39.000                          36.000          38.000
C14  26782585.766                    26782573.633    26782583.875        3095.590   139463950.987                   113325836.239   107842369.242          30.000                          33.000          34.000
C16  40700271.523                    40700263.090    40700274.258        1392.391   211936997.445                   172216133.896   163883139.787          36.000                          35.000          38.000
C21  22994707.484    22994703.660    22994694.348                         921.539   119739496.378    90236149.771    97298095.215                          51.000          38.000          50.000
C22  24413260.406    24413253.609    24413246.648                       63364.691   127126275.693    95802850.546   103300463.137                          46.000          32.000          46.000
C23  25582185.602    25582176.906    25582169.480                       63863.188   133213148.797   100389920.663   108246526.171                          40.000          27.000          41.000
C25  26357115.609    26357112.199    26357107.133                       62252.773   137248400.542   103430924.731   111525523.933                          38.000          25.000          39.000
C34  21787058.727    21787057.582    21787052.266                       65018.738   113450969.432    85497098.887    92188182.092                          53.000          39.000          53.000
C37  26827668.625    26827670.730    26827664.160                         657.012   139698717.704   105277515.871   113516625.764                          37.000          25.000          38.000
C39  40249050.492    40249047.000    40249041.547                        1211.082   209587386.059   157945892.122   170306873.298                          36.000          26.000          38.000
C42  25269219.297    25269227.414    25269220.691                        2951.422   131583468.552    99161857.311   106922344.511                          41.000          29.000          43.000
C43  23800225.781    23800225.066    23800217.914                        1852.562   123934037.071    93397176.802   100706549.714                          47.000          33.000          46.000
C44  24056463.656    24056461.164    24056455.352                       62621.742   125268350.963    94402750.570   101790775.345                          44.000          31.000          44.000
C60  40587845.102                    40587822.105                       65023.578   211351611.093                   171740356.823                          35.000                          39.000
E04  28828530.445                    28828533.672    28828534.344        2577.180   151494950.521                   116080557.206   114604959.441          36.000                          39.000          40.000
E11  23829702.688    23829699.707    23829703.301    23829703.469        1418.000   125225944.567    93512861.399    95952352.066    94732621.514          45.000          30.000          45.000          45.000
E12  21979753.445    21979751.262    21979754.305    21979754.430       64764.336   115504400.958    86253264.896    88503382.745    87378344.595          49.000          36.000          52.000          53.000
E19  25989181.109    25989180.535    25989183.660    25989184.035        1712.309   136574068.774   101987112.266   104647673.723   103317413.275          41.000          26.000          42.000          43.000
E24  25846414.750    25846414.730    25846417.145    25846417.625       62697.273   135823819.728   101426847.849   104072805.191   102749847.294          48.000          33.000          50.000          50.000
E25  25743491.562    25743492.910    25743495.578    25743496.008       65457.113   135282956.131   101022981.566   103658377.738   102340693.929          47.000          32.000          49.000          50.000
E33  26279644.656    26279644.086    26279647.215    26279647.594       62935.324   138100480.938   103126982.046   105817266.506   104472140.557          44.000          32.000          47.000          48.000
G08  22002449.375    22002457.223        2095.160   115623643.473    90096391.389          47.000          45.000
G10  20870253.062    20870259.215         461.836   109674057.580    85460247.257          56.000          49.000
G15  24211791.391    24211795.402       63609.016   127233772.320    99143267.273          39.000          36.000
G16  22041400.422    22041403.633       62486.504   115828232.252    90255865.722          48.000          39.000
G18  23189836.336    23189840.586       62143.676   121863358.832    94958544.057          42.000          41.000
G21  24067898.805    24067901.957        2195.129   126477593.562    98554051.506          37.000          20.000
G23  21240773.789    21240777.910       63594.340   111620978.559    86977461.092          50.000          48.000
G26  24258817.141    24258825.535       61472.285   127480849.341    99335840.271          38.000          36.000
G32  25561592.227    25561599.684        2784.684   134326970.406   104670471.666          37.000          34.000
R04  21465372.617    21465384.742       63069.590   114946105.961    89402595.359          49.000          48.000
R05  20482455.828    20482466.086        1584.070   109490484.446    85159315.280          53.000          52.000
R06  23628895.445                        4119.648   126088337.547                          31.000
R10  23220531.305                       61029.625   123778479.849                          43.000
R12  23209797.250    23209808.043        1921.988   123982550.716    96430922.795          46.000          44.000
R19  23447816.398    23447825.895       61911.781   125429985.784    97556709.283          33.000          40.000
R20  19793714.383    19793725.785       64370.172   105845803.946    82324670.478          44.000          53.000
R21  21488430.766    21488441.973        2230.078   114988883.114    89435897.477          49.000          47.000
> 2021 12 21 00 02 00.0000000  0 44
C02  40523181.219                    40523170.488    40523175.750       65094.844   211014818.286                   171466794.999   163170039.886          31.000                          36.000          38.000
C05  39029499.406                    39029489.273    39029496.203       65106.469   203236806.529                   165146539.378   157155611.510          36.000                          38.000          41.000
C06  40640398.211                    40640385.305    40640395.152        1547.418   211625212.216                   171962773.541   163642038.033          34.000                          33.000          36.000
C09  41528735.305                    41528723.340    41528734.352        1578.293   216251016.048                   175721620.880   167219006.372          33.000                          31.000          33.000
C11  22188484.500                    22188474.059    22188483.328         724.312   115541291.536                    93886721.983    89343859.166          50.000                          51.000          53.000
C12  22651243.422                    22651232.402    22651241.949       63587.543   117951002.164                    95844809.929    91207200.458          48.000                          50.000          52.000
C13  39905743.484                    39905735.852    39905746.852       64195.492   207799693.200                   168854247.532   160683926.958          38.000                          36.000          39.000
C14  26764745.305                    26764733.672    26764743.602        3097.402   139371053.218                   113250349.139   107770534.758          32.000                          32.000          33.000
C16  40692256.922                    40692248.074    40692259.043        1389.965   211895260.967                   172182219.612   163850866.521          35.000                          35.000          39.000
C21  22989442.148    22989438.730    22989429.281                         905.957   119712079.938    90215488.639    97275817.117                          51.000          38.000          50.000
C22  24425810.133    24425803.809    24425796.113                       63350.496   127191624.840    95852097.935   103353564.677                          45.000          32.000          45.000
C23  25591860.734    25591852.453    25591845.184                       63849.605   133263532.265   100427889.845   108287466.863                          41.000          27.000          42.000
C25  26376036.289    26376033.512    26376028.500                       62250.562   137346929.126   103505176.273   111605586.472                          38.000          26.000          39.000
C34  21790065.594    21790064.465    21790059.234                       65009.176   113466627.439    85508898.818    92200905.506                          53.000          39.000          52.000
C37  26823924.484    26823926.738    26823920.230                         642.559   139679221.116   105262823.162   113500783.185                          38.000          26.000          37.000
C39  40242083.250    40242079.598    40242074.230                        1207.324   209551106.115   157918551.421   170277392.897                          37.000          24.000          38.000
C42  25252225.680    25252233.422    25252227.004                        2947.770   131494977.485    99095170.100   106850438.301                          42.000          29.000          42.000
C43  23789564.773    23789563.816    23789556.691                        1848.207   123878521.846    93355340.286   100661439.045                          47.000          34.000          46.000
C44  24073267.750    24073265.012    24073259.078                       62616.656   125355852.470    94468692.049   101861877.479                          44.000          29.000          44.000
C60  40590794.992                    40590771.898                       65023.953   211366971.851                   171752838.698                          36.000                          38.000
E04  28813807.109                    28813810.184    28813810.883        2580.699   151417578.389                   116021272.044   114546427.906          37.000                          38.000          39.000
E11  23821617.516    23821614.410    23821618.027    23821618.246        1414.281   125183456.517    93481133.350    95919796.316    94700479.607          44.000          31.000          45.000          45.000
E12  21984174.414    21984172.254    21984175.094    21984175.305       64758.652   115527632.927    86270613.451    88521183.869    87395919.432          49.000          37.000          53.000          53.000
E19  25979430.148    25979429.797    25979432.922    25979433.359        1703.422   136522828.816   101948848.662   104608411.939   103278650.578          40.000          26.000          43.000          43.000
E24  25862645.156    25862645.410    25862647.492    25862647.984       62688.469   135909111.343   101490539.631   104138158.488   102814369.838          48.000          33.000          49.000          50.000
E25  25743982.719    25743983.801    25743986.566    25743987.090       65442.559   135285536.715   101024908.620   103660355.066   102342646.119          46.000          32.000          49.000          49.000
E33  26294496.219    26294495.449    26294498.648    26294499.051       62933.594   138178525.477   103185262.048   105877066.862   104531180.733          44.000          31.000          47.000          48.000
G08  21990512.602    21990520.391        2086.418   115560916.464    90047513.194          47.000          45.000
G10  20867665.250    20867671.727         444.336   109660460.079    85449651.808          55.000          49.000
G15  24222844.703    24222848.492       63590.598   127291857.022    99188528.102          39.000          35.000
G16  22058847.969    22058851.188       62472.801   115919919.901    90327310.630          48.000          39.000
G18  23209210.688    23209215.023       62140.543   121965171.968    95037878.962          41.000          42.000
G21  24055378.531    24055382.383        2190.902   126411801.260    98502784.798          37.000          20.000
G23  21251905.320    21251909.383       63577.652   111679475.230    87023042.922          49.000          48.000
G26  24282019.039    24282027.016       61471.129   127602774.436    99430846.811          37.000          36.000
G32  25545684.484    25545691.379        2788.254   134243374.210   104605331.777          35.000          33.000
R04  21479256.562    21479268.281       63045.809   115020452.352    89460420.332          49.000          48.000
R05  20473632.820    20473643.625        1559.785   109443322.705    85122633.933          53.000          52.000
R06  23605735.094                        4118.715   125964756.223                          31.000
R10  23245907.234                       61024.242   123913748.222                          43.000
R12  23199060.609    23199070.922        1901.117   123925201.373    96386317.744          46.000          44.000
R19  23468148.727    23468160.242       61908.820   125538754.123    97641306.873          33.000          40.000
R20  19800285.945    19800298.422       64358.691   105880948.668    82352005.256          44.000          52.000
R21  21475942.766    21475953.855        2224.777   114922055.951    89383920.812          49.000          48.000
> 2021 12 21 00 02 30.0000000  0 43
C05  39031975.562                    39031965.113    39031972.078       65105.938   203249699.001                   165157015.570   157165580.792          36.000                          38.000          41.000
C06  40631489.703                    40631477.133    40631486.160        1545.152   211578824.137                   171925079.441   163606167.851          34.000                          32.000          36.000
C09  41519642.141                    41519630.512    41519641.793        1577.781   216203668.305                   175683146.982   167182394.111          32.000                          32.000          34.000
C11  22184334.180                    22184323.758    22184332.996         716.234   115519679.993                    93869160.828    89327147.755          51.000                          51.000          52.000
C12  22662492.875                    22662481.824    22662491.371       63578.977   118009581.267                    95892410.241    91252497.529          48.000                          50.000          51.000
C13  39913464.203                    39913456.359    39913467.340       64196.062   207839894.865                   168886914.666   160715013.429          38.000                          36.000          38.000
C14  26746894.992                    26746882.664    26746892.504        3099.176   139278097.951                   113174815.390   107698655.838          32.000                          33.000          34.000
C16  40684259.297                    40684250.445    40684261.773        1386.414   211853617.091                   172148380.559   163818664.846          35.000                          34.000          39.000
C21  22984268.484    22984265.430    22984256.055                         889.723   119685141.171    90195187.477    97253927.168                          52.000          37.000          50.000
C22  24438443.055    24438436.332    24438428.730                       63335.809   127257405.967    95901670.870   103407017.225                          46.000          32.000          46.000
C23  25601616.844    25601608.008    25601600.910                       63835.500   133314331.790   100466172.569   108328745.637                          41.000          27.000          42.000
C25  26394971.438    26394968.938    26394963.730                       62247.645   137445530.978   103579483.009   111685708.548                          37.000          25.000          39.000
C34  21793129.812    21793128.582    21793123.375                       64998.875   113482583.203    85520923.154    92213870.872                          54.000          39.000          52.000
C37  26820266.047    26820268.184    26820261.684                         627.301   139660171.236   105248467.078   113485303.561                          38.000          23.000          37.000
C39  40235140.227    40235136.559    40235130.984                        1202.867   209514950.237   157891304.218   170248013.301                          37.000          25.000          38.000
C42  25235254.523    25235262.625    25235255.977                        2943.488   131406605.769    99028572.831   106778629.054                          42.000          29.000          42.000
C43  23778930.688    23778929.863    23778922.523                        1843.203   123823147.515    93313609.957   100616442.859                          46.000          33.000          45.000
C44  24090102.109    24090099.762    24090093.742                       62610.930   125443514.941    94534754.850   101933110.398                          44.000          31.000          44.000
C60  40593744.305                    40593721.254                       65023.875   211382329.377                   171765317.947                          36.000                          39.000
E04  28799065.359                    28799068.562    28799069.195        2583.555   151340110.812                   115961913.746   114487824.167          36.000                          39.000          40.000
E11  23813554.867    23813551.492    23813554.984    23813555.238        1410.102   125141085.540    93449492.691    95887330.255    94668426.253          44.000          30.000          45.000          45.000
E12  21988629.812    21988627.855    21988630.613    21988630.824       64752.133   115551046.807    86288097.840    88539124.378    87413631.887          49.000          37.000          52.000          53.000
E19  25969733.219    25969732.617    25969735.582    25969736.152        1693.617   136471869.529   101910794.669   104569365.237   103240100.228          41.000          26.000          43.000          43.000
E24  25878927.672    25878927.824    25878930.078    25878930.496       62678.910   135994676.907   101554435.979   104203721.693   102879099.614          48.000          33.000          49.000          50.000
E25  25744558.273    25744559.363    25744562.223    25744562.719       65427.480   135288561.767   101027167.570   103662672.956   102344934.543          46.000          32.000          49.000          49.000
E33  26309359.094    26309358.535    26309361.566    26309362.000       62931.219   138256630.322   103243587.069   105936913.418   104590266.524          43.000          31.000          48.000          48.000
G08  21978627.625    21978634.969        2077.145   115498458.154    89998844.385          46.000          44.000
G10  20865180.516    20865186.875         425.992   109647402.000    85439476.689          55.000          51.000
G15  24234004.234    24234008.613       63571.668   127350502.113    99234225.571          38.000          36.000
G16  22076375.742    22076379.086       62458.398   116012028.838    90399083.818          48.000          39.000
G18  23228605.141    23228609.180       62136.832   122067088.443    95117294.395          41.000          41.000
G21  24042885.797    24042888.387        2185.977   126346146.833    98451625.494          38.000          21.000
G23  21263133.641    21263138.312       63560.371   111738481.806    87069022.076          50.000          48.000
G26  24305229.000    24305237.172       61469.234   127724743.169    99525887.348          37.000          35.000
G32  25529758.484    25529765.902        2790.949   134159683.751   104540118.432          37.000          33.000
R04  21493274.938    21493286.320       63021.387   115095520.841    89518806.928          49.000          48.000
R05  20464948.742    20464959.156        1534.719   109396900.420    85086527.718          54.000          51.000
R06  23582584.227                        4116.938   125841221.180                          31.000
R10  23271314.461                       61018.422   124049184.761                          42.000
R12  23188444.570    23188454.484        1879.488   123868489.719    96342208.665          45.000          44.000
R19  23488500.320    23488510.871       61905.055   125647623.307    97725982.906          34.000          39.000
R20  19806924.078    19806936.637       64346.648   105916444.924    82379613.454          44.000          53.000
R21  21463485.703    21463497.090        2218.863   114855397.246    89332075.161          49.000          48.000
> 2021 12 21 00 03 00.0000000  0 43
C05  39034453.508                    39034442.637    39034449.500       65105.922   203262600.548                   165167499.146   157175557.095          36.000                          38.000          41.000
C06  40622595.156                    40622583.109    40622592.031        1542.719   211532509.137                   171887444.707   163570354.164          34.000                          33.000          36.000
C09  41510555.086                    41510543.383    41510555.453        1576.664   216156350.526                   175644697.414   167145804.981          32.000                          32.000          35.000
C11  22180230.344                    22180219.844    22180229.316         708.434   115498310.121                    93851796.054    89310623.213          50.000                          50.000          53.000
C12  22673791.219                    22673780.336    22673789.922       63570.828   118068415.648                    95940217.993    91297992.004          49.000                          50.000          52.000
C13  39921179.836                    39921171.988    39921182.688       64197.344   207880072.406                   168919562.206   160746081.256          38.000                          36.000          39.000
C14  26729035.688                    26729022.453    26729032.699        3100.996   139185095.694                   113099243.413   107626740.544          30.000                          34.000          35.000
C16  40676280.984                    40676272.621    40676283.773        1383.309   211812074.496                   172114623.807   163786541.513          36.000                          32.000          38.000
C21  22979188.688    22979185.805    22979176.305                         873.723   119658689.482    90175253.380    97232433.006                          51.000          37.000          50.000
C22  24451159.602    24451153.418    24451145.535                       63321.562   127323625.707    95951574.358   103460826.199                          46.000          32.000          45.000
C23  25611453.414    25611444.574    25611437.504                       63821.797   133365554.115   100504773.905   108370367.943                          41.000          26.000          42.000
C25  26413922.398    26413919.625    26413914.309                       62245.539   137544211.851   103653849.327   111765894.834                          38.000          27.000          38.000
C34  21796252.984    21796251.617    21796246.387                       64988.988   113498845.500    85533178.496    92227085.324                          53.000          39.000          52.000
C37  26816695.703    26816697.320    26816690.801                         612.191   139641577.266   105234454.555   113470194.425                          37.000          24.000          37.000
C39  40228223.250    40228218.879    40228213.082                        1198.676   209478927.313   157864157.219   170218741.720                          37.000          25.000          37.000
C42  25218308.852    25218316.727    25218310.020                        2939.316   131318363.901    98962073.414   106706925.335                          42.000          30.000          42.000
C43  23768325.570    23768324.367    23768317.531                        1838.461   123767923.339    93271992.791   100571568.688                          47.000          34.000          46.000
C44  24106969.422    24106966.945    24106960.770                       62605.664   125531346.218    94600944.854   102004480.501                          44.000          30.000          44.000
C60  40596694.570                    40596671.457                       65023.938   211397692.047                   171777801.373                          36.000                          38.000
E04  28784307.594                    28784311.055    28784311.426        2586.621   151262557.743                   115902489.979   114429155.783          35.000                          41.000          41.000
E11  23805515.977    23805512.281    23805515.918    23805516.168        1406.223   125098840.139    93417945.814    95854960.413    94636467.894          45.000          30.000          45.000          45.000
E12  21993121.531    21993119.480    21993122.277    21993122.508       64746.219   115574650.729    86305724.160    88557210.509    87431488.108          49.000          36.000          53.000          54.000
E19  25960091.219    25960090.656    25960093.762    25960094.254        1684.281   136421201.076   101872957.839   104530541.368   103201769.886          41.000          27.000          43.000          43.000
E24  25895263.828    25895263.977    25895266.020    25895266.504       62669.984   136080523.020   101618541.814   104269499.867   102944041.627          48.000          33.000          50.000          50.000
E25  25745220.453    25745221.836    25745224.195    25745224.605       65412.633   135292040.033   101029764.979   103665338.113   102347565.827          47.000          32.000          49.000          50.000
E33  26324234.844    26324234.199    26324237.523    26324237.871       62929.312   138334803.606   103301963.206   105996812.405   104649404.080          44.000          31.000          48.000          48.000
G08  21966795.109    21966802.727        2068.125   115436279.257    89950393.311          46.000          45.000
G10  20862800.141    20862806.363         408.062   109634892.180    85429728.781          55.000          50.000
G15  24245272.531    24245275.711       63553.172   127409714.207    99280364.877          40.000          37.000
G16  22093984.359    22093988.043       62444.582   116104564.587    90471189.585          48.000          39.000
G18  23248019.633    23248024.129       62133.430   122169115.703    95196796.109          41.000          41.000
G21  24030419.359    24030422.953        2181.090   126280639.213    98400580.627          38.000          22.000
G23  21274460.789    21274465.117       63543.500   111798004.788    87115403.628          48.000          48.000
G26  24328448.156    24328456.309       61467.844   127846761.285    99620966.438          37.000          34.000
G32  25513817.641    25513824.070        2793.992   134075910.049   104474840.242          38.000          34.000
R04  21507429.016    21507440.531       62997.527   115171316.778    89577759.313          49.000          48.000
R05  20456404.836    20456415.422        1509.938   109351228.983    85051005.509          53.000          51.000
R06  23559445.477                        4115.043   125717744.897                          30.000
R10  23296755.016                       61013.078   124184793.459                          42.000
R12  23177948.547    23177960.180        1858.090   123812426.967    96298604.281          46.000          43.000
R19  23508872.883    23508883.453       61901.445   125756601.841    97810743.961          34.000          40.000
R20  19813630.086    19813641.434       64334.867   105952301.644    82407502.002          43.000          53.000
R21  21451062.828    21451073.230        2213.176   114788916.662    89280368.046          49.000          48.000
> 2021 12 21 00 03 30.0000000  0 43
C05  39036931.258                    39036920.762    39036927.871       65105.660   203275504.776                   165177984.891   157185535.475          36.000                          39.000          41.000
C06  40613713.828                    40613701.660    40613710.914        1540.336   211486261.385                   171849864.610   163534592.439          33.000                          33.000          37.000
C09  41501473.102                    41501461.320    41501472.668        1575.996   216109056.658                   175606267.274   167109234.383          31.000                          32.000          35.000
C11  22176171.625                    22176161.277    22176170.742         700.332   115477176.308                    93834623.100    89294281.207          50.000                          51.000          53.000
C12  22685137.766                    22685126.723    22685136.176       63562.195   118127498.822                    95988227.899    91343678.854          48.000                          50.000          52.000
C13  39928889.453                    39928881.730    39928892.238       64198.016   207920219.400                   168952184.922   160777125.453          37.000                          36.000          39.000
C14  26711164.719                    26711152.520    26711162.648        3102.242   139092041.656                   113023629.368   107554785.247          28.000                          34.000          35.000
C16  40668321.781                    40668313.074    40668324.227        1379.902   211770627.445                   172080944.694   163754492.033          36.000                          34.000          37.000
C21  22974201.344    22974198.504    22974189.012                         857.465   119632719.597    90155682.380    97211330.358                          51.000          37.000          51.000
C22  24463959.359    24463953.016    24463944.914                       63306.969   127390276.020    96001802.312   103514985.038                          45.000          33.000          45.000
C23  25621369.453    25621360.988    25621354.062                       63807.758   133417191.184   100543687.810   108412327.281                          40.000          26.000          43.000
C25  26432886.273    26432883.801    26432878.492                       62243.039   137642962.856   103728268.492   111846138.102                          37.000          25.000          38.000
C34  21799433.766    21799432.133    21799427.023                       64978.680   113515408.320    85545660.310    92240543.969                          53.000          40.000          52.000
C37  26813211.258    26813213.109    26813206.852                         597.105   139623433.584   105220781.398   113455451.179                          37.000          23.000          37.000
C39  40221328.898    40221325.461    40221319.801                        1194.164   209443031.310   157837105.872   170189573.295                          37.000          26.000          37.000
C42  25201387.023    25201395.004    25201388.238                        2934.984   131230247.654    98895668.665   106635323.680                          42.000          30.000          42.000
C43  23757748.203    23757746.941    23757740.094                        1833.379   123712843.898    93230484.693   100526812.131                          47.000          34.000          46.000
C44  24123867.312    24123865.012    24123859.109                       62599.965   125619339.502    94667256.941   102075982.235                          44.000          30.000          45.000
C60  40599644.586                    40599621.363                       65023.777   211413053.309                   171790283.660                          35.000                          38.000
E04  28769532.383                    28769535.840    28769536.480        2589.430   151184914.506                   115842997.124   114370419.188          34.000                          40.000          42.000
E11  23797499.297    23797496.043    23797499.348    23797499.789        1402.039   125056713.970    93386487.965    95822681.929    94604599.729          45.000          30.000          45.000          45.000
E12  21997648.109    21997646.203    21997648.801    21997649.070       64739.812   115598438.017    86323487.386    88575437.127    87449483.030          49.000          37.000          53.000          53.000
E19  25950503.539    25950503.172    25950506.316    25950506.812        1674.527   136370818.721   101835334.688   104491936.727   103163655.984          41.000          27.000          43.000          44.000
E24  25911651.328    25911651.781    25911653.738    25911654.289       62660.688   136166641.446   101682851.007   104335486.698   103009189.636          49.000          33.000          49.000          50.000
E25  25745967.234    25745969.090    25745971.094    25745971.566       65397.547   135295965.325   101032696.195   103668345.806   102350535.279          47.000          33.000          49.000          50.000
E33  26339122.500    26339121.758    26339125.199    26339125.586       62926.938   138413038.611   103360385.434   106056758.698   104708588.343          44.000          31.000          48.000          49.000
G08  21955015.531    21955022.703        2058.754   115374375.186    89902156.365          46.000          45.000
G10  20860522.703    20860529.016         389.688   109622924.486    85420403.321          55.000          50.000
G15  24256645.664    24256650.113       63534.078   127469486.123    99326940.398          39.000          36.000
G16  22111673.141    22111676.367       62430.391   116197518.208    90543620.969          48.000          38.000
G18  23267454.500    23267459.332       62129.727   122271246.201    95276378.294          42.000          41.000
G21  24017980.094    24017984.598        2176.469   126215272.157    98349645.323          39.000          22.000
G23  21285884.211    21285888.465       63526.309   111858035.854    87162181.080          49.000          48.000
G26  24351675.367    24351683.094       61466.473   127968819.626    99716076.808          37.000          37.000
G32  25497859.000    25497866.027        2796.664   133992049.126   104409494.053          36.000          32.000
R04  21521718.023    21521728.980       62973.379   115247830.902    89637270.305          49.000          48.000
R05  20448001.117    20448010.613        1484.789   109306304.445    85016064.224          54.000          52.000
R06  23536317.125                        4112.887   125594324.340                          32.000
R10  23322224.414                       61007.387   124320564.275                          42.000
R12  23167574.945    23167584.637        1836.270   123757009.684    96255501.943          46.000          43.000
R19  23529263.938    23529276.297       61898.125   125865681.886    97895583.981          34.000          40.000
R20  19820401.352    19820412.887       64322.879   105988512.564    82435666.058          43.000          52.000
R21  21438670.383    21438681.965        2207.191   114722608.415    89228794.981          49.000          48.000
> 2021 12 21 00 04 00.0000000  0 44
C02  40533357.461                    40533346.555    40533352.324       65094.520   211067812.787                   171509852.331   163211011.747          31.000                          35.000          39.000
C05  39039409.742                    39039399.570    39039406.484       65105.676   203288412.648                   165188473.593   157195516.656          36.000                          38.000          41.000
C06  40604845.352                    40604833.344    40604842.469        1538.066   211440082.440                   171812340.443   163498883.965          33.000                          33.000          36.000
C09  41492395.406                    41492383.871    41492395.105        1575.102   216061788.419                   175567857.992   167072683.605          31.000                          33.000          36.000
C11  22172159.055                    22172148.488    22172157.785         692.641   115456280.401                    93817643.462    89278123.167          49.000                          51.000          53.000
C12  22696532.094                    22696520.824    22696530.492       63554.145   118186831.714                    96036440.731    91389558.809          48.000                          50.000          52.000
C13  39936593.414                    39936585.734    39936596.496       64199.242   207960336.722                   168984783.522   160808146.698          37.000                          36.000          39.000
C14  26693285.234                    26693273.027    26693283.176        3104.168   138998938.860                   112947975.732   107482792.267          30.000                          35.000          36.000
C16  40660381.141                    40660372.211    40660383.020        1376.754   211729277.438                   172047344.425   163722517.595          36.000                          34.000          38.000
C21  22969307.195    22969304.129    22969294.809                         841.469   119607233.678    90136476.088    97190620.970                          51.000          38.000          50.000
C22  24476840.938    24476835.133    24476827.066                       63292.934   127457356.170    96052354.189   103569493.155                          45.000          33.000          45.000
C23  25631366.234    25631357.203    25631349.988                       63794.121   133469242.425   100582913.829   108454623.161                          41.000          29.000          43.000
C25  26451863.156    26451861.195    26451855.797                       62241.082   137741782.630   103802739.452   111926437.254                          37.000          23.000          38.000
C34  21802672.406    21802670.973    21802665.801                       64968.848   113532273.168    85558369.733    92254248.043                          53.000          39.000          52.000
C37  26809813.555    26809815.688    26809809.105                         582.414   139605742.192   105207449.076   113441075.471                          37.000          24.000          38.000
C39  40214460.469    40214456.598    40214451.012                        1190.234   209407263.691   157810151.292   170160509.208                          37.000          28.000          38.000
C42  25184489.961    25184498.012    25184491.137                        2930.906   131142260.317    98829361.064   106563826.781                          42.000          27.000          43.000
C43  23747198.922    23747197.828    23747190.875                        1828.699   123657911.153    93189087.141   100482174.772                          47.000          34.000          46.000
C44  24140796.961    24140794.426    24140788.391                       62594.785   125707495.378    94733691.569   102147616.092                          44.000          30.000          44.000
C60  40602594.453                    40602571.332                       65023.945   211428414.280                   171802765.708                          35.000                          38.000
E04  28754740.805                    28754744.348    28754744.863        2592.633   151107183.729                   115783437.232   114311616.411          35.000                          41.000          41.000
E11  23789506.023    23789502.484    23789505.984    23789506.285        1398.258   125014708.161    93355120.005    95790495.664    94572822.619          46.000          31.000          45.000          45.000
E12  22002209.773    22002207.746    22002210.418    22002210.684       64733.910   115622409.485    86341388.165    88593804.889    87467617.301          49.000          36.000          53.000          53.000
E19  25940971.117    25940970.762    25940973.805    25940974.363        1665.043   136320725.380   101797927.349   104453553.536   103125760.714          41.000          26.000          43.000          43.000
E24  25928091.133    25928091.527    25928093.270    25928093.805       62651.805   136253031.451   101747363.003   104401681.621   103074543.099          48.000          33.000          48.000          50.000
E25  25746799.719    25746801.246    25746803.254    25746803.859       65382.828   135300339.036   101035962.277   103671697.085   102353843.963          47.000          33.000          49.000          49.000
E33  26354021.852    26354021.168    26354024.719    26354025.148       62925.141   138491336.144   103418854.340   106116752.884   104767819.883          44.000          31.000          48.000          48.000
G08  21943288.086    21943295.715        2049.602   115312749.068    89854136.022          46.000          45.000
G10  20858348.570    20858354.781         371.758   109611500.328    85411501.389          55.000          50.000
G15  24268127.078    24268131.121       63515.723   127529817.073    99373951.530          39.000          36.000
G16  22129440.211    22129443.969       62416.855   116290887.798    90616376.488          47.000          39.000
G18  23286908.695    23286913.648       62126.605   122373479.995    95356040.986          43.000          41.000
G21  24005568.078    24005572.109        2171.992   126150046.886    98298820.484          39.000          22.000
G23  21297404.523    21297408.824       63509.711   111918574.096    87209353.743          48.000          47.000
G26  24374909.898    24374917.238       61465.410   128090916.802    99811217.436          36.000          35.000
G32  25481884.633    25481891.676        2799.512   133908104.656   104344082.803          35.000          33.000
R04  21536139.875    21536151.133       62949.824   115325061.581    89697338.614          48.000          48.000
R05  20439737.836    20439747.699        1459.992   109262130.606    84981706.804          53.000          51.000
R06  23513199.016                        4110.871   125470964.725                          32.000
R10  23347724.461                       61002.570   124456492.752                          42.000
R12  23157322.141    23157332.840        1814.758   123702241.811    96212904.700          46.000          43.000
R19  23549675.508    23549686.391       61895.012   125974864.441    97980503.748          34.000          40.000
R20  19827239.367    19827251.277       64311.250   106025078.365    82464106.127          44.000          53.000
R21  21426312.102    21426322.176        2201.621   114656474.865    89177357.779          48.000          48.000
> 2021 12 21 00 04 30.0000000  0 44
C02  40535902.977                    40535891.832    40535897.613       65094.461   211081066.828                   171520622.315   163221260.606          31.000                          36.000          39.000
C05  39041889.977                    39041879.234    39041886.051       65105.633   203301324.775                   165198965.767   157205501.146          36.000                          38.000          42.000
C06  40595990.453                    40595978.375    40595987.344        1535.922   211393973.472                   171774873.141   163463229.594          33.000                          34.000          36.000
C09  41483324.031                    41483311.434    41483323.086        1574.203   216014546.947                   175529470.450   167036153.514          31.000                          32.000          36.000
C11  22168192.047                    22168181.457    22168190.977         684.770   115435623.781                    93800858.265    89262150.165          50.000                          51.000          52.000
C12  22707974.312                    22707963.160    22707972.777       63545.922   118246414.849                    96084856.904    91435632.257          49.000                          50.000          51.000
C13  39944292.195                    39944284.297    39944295.121       64200.203   208000424.947                   169017358.482   160839145.454          37.000                          36.000          39.000
C14  26675396.727                    26675384.672    26675395.086        3105.789   138905789.641                   112872284.344   107410763.380          31.000                          33.000          33.000
C16  40652459.531                    40652450.262    40652461.461        1373.457   211688025.511                   172013823.854   163690618.999          35.000                          34.000          37.000
C21  22964506.023    22964503.047    22964493.785                         825.434   119582233.358    90117635.751    97170306.160                          52.000          37.000          51.000
C22  24489805.547    24489799.816    24489791.211                       63278.777   127524865.077    96103229.182   103624349.675                          45.000          33.000          45.000
C23  25641440.758    25641432.547    25641424.840                       63780.402   133521706.729   100622451.125   108497254.703                          40.000          28.000          42.000
C25  26470853.648    26470851.469    26470845.863                       62238.883   137840669.170   103877260.751   112006790.649                          38.000          24.000          39.000
C34  21805969.312    21805968.004    21805962.676                       64958.938   113549440.991    85571307.480    92268198.307                          53.000          39.000          53.000
C37  26806503.984    26806505.547    26806498.965                         567.191   139588504.457   105194458.602   113427068.387                          36.000          23.000          38.000
C39  40207616.836    40207612.762    40207606.938                        1186.020   209371625.530   157783294.257   170131550.300                          37.000          27.000          38.000
C42  25167618.430    25167626.152    25167619.121                        2926.469   131054404.558    98763152.616   106492436.788                          42.000          30.000          42.000
C43  23736678.133    23736677.266    23736670.090                        1823.891   123603126.606    93147801.279   100437657.842                          47.000          34.000          47.000
C44  24157757.445    24157755.258    24157749.230                       62589.605   125795813.965    94800248.812   102219382.170                          43.000          31.000          44.000
C60  40605544.391                    40605521.152                       65024.184   211443775.422                   171815247.897                          35.000                          38.000
E04  28739933.266                    28739936.043    28739936.918        2595.375   151029367.757                   115723811.995   114252749.121          35.000                          40.000          40.000
E11  23781535.641    23781532.121    23781535.500    23781535.867        1394.320   124972823.379    93323842.417    95758402.138    94541137.058          45.000          30.000          45.000          45.000
E12  22006806.461    22006804.480    22006807.129    22006807.363       64727.910   115646565.480    86359426.733    88612314.026    87485891.157          49.000          36.000          53.000          54.000
E19  25931494.328    25931493.539    25931496.805    25931497.305        1655.434   136270923.322   101760737.505   104415393.537   103088085.798          41.000          28.000          43.000          44.000
E24  25944581.906    25944582.410    25944584.148    25944584.750       62643.145   136339691.743   101812076.837   104468083.651   103140101.029          47.000          33.000          49.000          50.000
E25  25747717.289    25747718.730    25747721.059    25747721.609       65367.988   135305161.979   101039563.834   103675392.591   102357492.488          47.000          33.000          49.000          50.000
E33  26368933.680    26368932.637    26368936.266    26368936.629       62923.145   138569696.546   103477370.220   106176795.251   104827099.005          44.000          30.000          48.000          48.000
G08  21931614.922    21931621.934        2040.434   115251403.287    89806334.111          46.000          45.000
G10  20856278.258    20856284.586         353.746   109600620.591    85403023.678          55.000          50.000
G15  24279713.984    24279717.824       63497.250   127590705.971    99421397.426          38.000          36.000
G16  22147287.102    22147290.613       62403.172   116384672.144    90689455.188          48.000          38.000
G18  23306383.500    23306387.773       62123.332   122475816.539    95435783.727          42.000          42.000
G21  23993183.789    23993187.008        2167.262   126084964.549    98248106.940          38.000          23.000
G23  21309020.430    21309024.984       63493.039   111979618.186    87256920.568          49.000          48.000
G26  24398150.422    24398158.613       61464.539   128213050.617    99906386.657          37.000          35.000
G32  25465895.227    25465902.309        2802.312   133824079.636   104278608.771          36.000          33.000
R04  21550695.312    21550706.730       62926.215   115403006.029    89757962.065          49.000          48.000
R05  20431614.602    20431624.848        1434.930   109218710.782    84947935.849          53.000          52.000
R06  23490093.141                        4108.797   125347670.259                          31.000
R10  23373254.219                       60997.621   124592575.626                          42.000
R12  23147191.680    23147201.941        1793.121   123648126.963    96170815.388          46.000          43.000
R19  23570103.969    23570115.828       61891.816   126084149.310    98065503.053          34.000          40.000
R20  19834144.062    19834155.199       64299.629   106061999.871    82492822.846          43.000          52.000
R21  21413986.656    21413996.281        2195.801   114590517.573    89126057.674          49.000          48.000
> 2021 12 21 00 05 00.0000000  0 44
C02  40538447.977                    40538436.910    40538442.500       65094.379   211094319.579                   171531391.264   163231508.475          31.000                          35.000          38.000
C05  39044369.266                    39044359.004    39044365.906       65105.652   203314237.379                   165209458.321   157215485.995          36.000                          37.000          41.000
C06  40587149.031                    40587136.488    40587145.973        1533.387   211347931.318                   171737460.129   163427626.878          32.000                          34.000          38.000
C09  41474256.375                    41474243.930    41474255.223        1573.473   215967328.925                   175491101.940   166999641.538          31.000                          32.000          36.000
C11  22164270.398                    22164259.953    22164269.441         676.730   115415203.409                    93784265.055    89246359.852          50.000                          50.000          52.000
C12  22719463.953                    22719452.816    22719462.539       63537.547   118306244.241                    96133473.185    91481896.137          48.000                          50.000          52.000
C13  39951984.250                    39951976.641    39951987.445       64201.262   208040479.943                   169049906.432   160870118.506          38.000                          36.000          39.000
C14  26657499.836                    26657487.062    26657497.691        3107.125   138812592.081                   112796553.705   107338697.093          29.000                          32.000          35.000
C16  40644555.375                    40644546.309    40644557.281        1370.297   211646868.424                   171980380.353   163658793.732          36.000                          34.000          37.000
C21  22959797.797    22959794.766    22959785.496                         809.145   119557715.917    90099159.318    97150383.744                          51.000          37.000          50.000
C22  24502851.219    24502844.836    24502836.902                       63264.574   127592797.175    96154423.103   103679550.074                          45.000          31.000          45.000
C23  25651594.227    25651585.977    25651578.375                       63766.797   133574578.597   100662295.581   108540217.429                          40.000          28.000          41.000
C25  26489855.500    26489853.172    26489847.758                       62236.637   137939616.177   103951827.661   112087193.194                          38.000          24.000          38.000
C34  21809323.789    21809322.324    21809317.098                       64948.691   113566908.440    85584471.023    92282392.042                          53.000          39.000          52.000
C37  26803280.164    26803281.758    26803275.285                         552.016   139571717.431   105181807.828   113413427.544                          36.000          24.000          39.000
C39  40200795.922    40200792.898    40200787.328                        1181.539   209336113.517   157756532.283   170102693.905                          37.000          27.000          38.000
C42  25150771.430    25150779.305    25150772.453                        2922.027   130966678.757    98697042.119   106421152.415                          42.000          30.000          42.000
C43  23726185.406    23726184.402    23726177.234                        1818.797   123548487.474    93106625.009   100393259.073                          48.000          34.000          46.000
C44  24174748.688    24174746.285    24174740.223                       62584.082   125884291.052    94866925.506   102291277.042                          43.000          30.000          44.000
C60  40608493.266                    40608470.402                       65024.289   211459132.944                   171827727.145                          36.000                          38.000
E04  28725108.453                    28725111.867    28725112.379        2598.258   150951464.415                   115664119.811   114193815.736          37.000                          39.000          40.000
E11  23773587.602    23773583.918    23773587.586    23773587.805        1390.363   124931055.784    93292652.330    95726398.394    94509540.143          45.000          31.000          45.000          45.000
E12  22011437.758    22011435.668    22011438.164    22011438.469       64721.781   115670901.922    86377600.062    88630961.439    87504301.531          49.000          37.000          53.000          54.000
E19  25922072.156    25922071.574    25922074.816    25922075.352        1645.531   136221410.480   101723763.656   104377455.143   103050629.670          41.000          27.000          43.000          43.000
E24  25961123.219    25961123.426    25961125.441    25961126.090       62634.090   136426616.766   101876988.355   104534688.527   103205859.229          47.000          33.000          49.000          50.000
E25  25748720.031    25748721.523    25748723.754    25748724.227       65352.980   135310430.566   101043498.161   103679429.556   102361478.140          47.000          32.000          49.000          50.000
E33  26383856.141    26383855.109    26383858.797    26383859.289       62920.949   138648115.717   103535929.971   106236882.651   104886422.581          44.000          31.000          47.000          47.000
G08  21919994.219    21920001.207        2030.891   115190336.098    89758749.295          46.000          45.000
G10  20854310.875    20854317.141         335.570   109590281.767    85394967.462          56.000          50.000
G15  24291405.016    24291409.762       63478.633   127652147.629    99469274.063          38.000          36.000
G16  22165211.125    22165214.941       62389.492   116478864.520    90762851.832          47.000          38.000
G18  23325876.172    23325880.539       62119.852   122578251.086    95515602.846          43.000          42.000
G21  23980825.227    23980828.828        2162.512   126020021.326    98197501.890          39.000          21.000
G23  21320732.055    21320736.406       63476.164   112041162.359    87304877.074          49.000          48.000
G26  24421398.133    24421405.781       61463.230   128335214.739   100001579.487          36.000          35.000
G32  25449889.953    25449897.402        2804.824   133739972.860   104213071.053          36.000          34.000
R04  21565383.094    21565395.121       62902.488   115481657.441    89819135.391          49.000          48.000
R05  20423632.711    20423643.637        1409.664   109176043.550    84914750.242          54.000          52.000
R06  23467000.203                        4106.355   125224440.837                          32.000
R10  23398810.336                       60992.664   124728804.043                          43.000
R12  23137182.992    23137194.145        1771.215   123594663.890    96129232.986          47.000          43.000
R19  23590551.969    23590563.957       61888.180   126193532.473    98150578.864          33.000          39.000
R20  19841114.242    19841125.562       64287.641   106099273.267    82521813.267          43.000          53.000
R21  21401693.547    21401703.617        2189.879   114524733.760    89074892.483          50.000          48.000
> 2021 12 21 00 05 30.0000000  0 44
C02  40540993.578                    40540982.430    40540987.566       65094.105   211107575.022                   171542162.403   163241758.430          31.000                          35.000          39.000
C05  39046849.633                    39046839.484    39046846.281       65105.262   203327154.065                   165219954.190   157225474.002          36.000                          38.000          41.000
C06  40578319.672                    40578308.188    40578318.172        1531.215   211301960.015                   171700104.661   163392078.936          31.000                          33.000          38.000
C09  41465194.992                    41465181.258    41465192.840        1572.398   215920138.646                   175452755.959   166963151.036          32.000                          32.000          35.000
C11  22160395.023                    22160384.613    22160394.168         668.547   115395023.896                    93767867.544    89230755.771          50.000                          51.000          53.000
C12  22731001.586                    22730990.430    22731000.148       63529.148   118366323.494                    96182292.501    91528353.212          48.000                          50.000          51.000
C13  39959671.180                    39959663.105    39959673.930       64202.402   208080505.626                   169082430.587   160901068.891          37.000                          36.000          39.000
C14  26639592.938                    26639581.199    26639592.168        3108.496   138719351.793                   112720788.340   107266597.799          29.000                          33.000          36.000
C16  40636670.609                    40636661.824    40636672.555        1366.938   211605810.440                   171947017.382   163627045.087          36.000                          34.000          38.000
C21  22955183.430    22955179.879    22955170.758                         792.750   119533686.070    90081050.335    97130857.536                          52.000          38.000          50.000
C22  24515978.422    24515972.445    24515964.375                       63250.320   127661154.412    96205937.416   103735095.934                          45.000          33.000          46.000
C23  25661826.172    25661817.902    25661810.508                       63753.102   133627860.107   100702448.765   108583513.004                          40.000          27.000          41.000
C25  26508868.742    26508866.855    26508861.504                       62234.621   138038624.874   104026441.031   112167645.866                          38.000          23.000          39.000
C34  21812736.414    21812735.090    21812729.871                       64938.461   113584679.604    85597863.456    92296832.574                          53.000          40.000          52.000
C37  26800143.227    26800145.477    26800138.898                         536.742   139555385.554   105169500.028   113400156.564                          36.000          24.000          38.000
C39  40194001.539    40193998.113    40193992.500                        1177.066   209300731.758   157729868.483   170073943.344                          38.000          25.000          38.000
C42  25133950.414    25133958.602    25133951.941                        2917.297   130879088.804    98631033.992   106349978.422                          42.000          29.000          43.000
C43  23715721.000    23715720.336    23715713.156                        1813.684   123493998.377    93065561.815   100348982.234                          48.000          33.000          46.000
C44  24191770.695    24191768.418    24191762.551                       62578.555   125972929.843    94933724.073   102363303.312                          44.000          30.000          44.000
C60  40611442.828                    40611419.738                       65023.949   211474490.525                   171840206.436                          36.000                          38.000
E04  28710267.930                    28710271.699    28710272.129        2600.918   150873479.084                   115604364.801   114134820.336          37.000                          39.000          39.000
E11  23765662.383    23765658.797    23765662.418    23765662.695        1386.152   124889409.311    93261552.697    95694487.452    94478034.853          45.000          30.000          45.000          45.000
E12  22016103.586    22016101.621    22016104.227    22016104.555       64715.469   115695422.340    86395910.763    88649749.810    87522851.060          49.000          36.000          53.000          54.000
E19  25912706.141    25912705.602    25912708.891    25912709.379        1635.531   136172192.330   101687009.844   104339742.543   103013396.474          41.000          27.000          43.000          43.000
E24  25977715.109    25977715.398    25977717.488    25977718.133       62625.105   136513808.378   101942098.969   104601497.669   103271819.097          47.000          32.000          49.000          50.000
E25  25749808.078    25749809.699    25749811.883    25749812.371       65337.832   135316148.808   101047768.271   103683811.064   102365803.943          47.000          32.000          49.000          50.000
E33  26398790.641    26398789.480    26398793.289    26398793.746       62918.805   138726597.158   103594536.235   106297017.758   104945793.266          43.000          30.000          47.000          48.000
G08  21908427.398    21908434.609        2021.254   115129552.931    89711385.795          47.000          44.000
G10  20852447.195    20852453.367         317.336   109580487.839    85387335.846          56.000          50.000
G15  24303202.680    24303207.145       63460.254   127714143.777    99517582.761          38.000          36.000
G16  22183212.930    22183216.941       62375.766   116573465.554    90836566.915          47.000          38.000
G18  23345387.883    23345392.492       62116.406   122680786.333    95595500.432          42.000          42.000
G21  23968494.750    23968498.184        2157.535   125955221.450    98147008.539          38.000          22.000
G23  21332539.148    21332543.434       63459.379   112103208.343    87353224.602          48.000          47.000
G26  24444649.938    24444658.625       61462.500   128457410.241   100096796.715          36.000          36.000
G32  25433871.070    25433878.430        2807.188   133655790.658   104147474.537          36.000          34.000
R04  21580202.414    21580215.332       62878.926   115561016.574    89880859.157          48.000          48.000
R05  20415793.188    20415803.980        1384.203   109134135.628    84882155.199          54.000          52.000
R06  23443921.680                        4103.645   125101284.190                          32.000
R10  23424393.039                       60987.770   124865178.059                          43.000
R12  23127298.508    23127308.879        1749.039   123541859.501    96088162.898          46.000          43.000
R19  23611019.055    23611032.422       61884.586   126303017.210    98235733.667          33.000          41.000
R20  19848151.125    19848162.863       64275.723   106136902.418    82551080.379          42.000          53.000
R21  21389433.617    21389443.672        2183.758   114459128.283    89023866.009          50.000          48.000
> 2021 12 21 00 06 00.0000000  0 45
C02  40543538.562                    40543527.594    40543532.777       65094.020   211120828.399                   171552931.850   163252006.780          31.000                          35.000          39.000
C05  39049329.758                    39049319.887    39049326.824       65105.445   203340070.350                   165230449.726   157235461.695          36.000                          38.000          42.000
C06  40569505.406                    40569492.629    40569501.961        1528.863   211256055.776                   171662803.705   163356582.877          32.000                          33.000          36.000
C09  41456135.656                    41456123.492    41456135.129        1571.895   215872972.196                   175414429.371   166926678.979          31.000                          32.000          36.000
C11  22156565.570                    22156554.965    22156564.367         660.812   115375081.542                    93751662.761    89215335.083          50.000                          51.000          53.000
C12  22742586.422                    22742575.117    22742584.781       63521.066   118426648.048                    96231311.138    91574999.989          48.000                          50.000          51.000
C13  39967350.523                    39967342.934    39967353.840       64203.523   208120497.189                   169114926.996   160931992.896          37.000                          37.000          40.000
C14  26621678.391                    26621666.773    26621677.562        3110.172   138626066.107                   112644986.102   107194463.397          29.000                          35.000          36.000
C16  40628804.273                    40628795.332    40628806.359        1364.109   211564847.496                   171913731.653   163595369.957          36.000                          34.000          37.000
C21  22950661.969    22950658.336    22950649.059                         776.730   119510140.366    90063306.210    97111724.728                          51.000          38.000          50.000
C22  24529186.383    24529179.766    24529172.180                       63236.473   127729930.596    96257767.438   103790982.212                          45.000          32.000          45.000
C23  25672136.438    25672127.961    25672119.945                       63739.824   133681544.993   100742905.894   108627136.374                          40.000          28.000          42.000
C25  26527892.875    26527890.977    26527885.551                       62233.105   138137688.281   104101095.620   112248142.989                          39.000          23.000          38.000
C34  21816206.617    21816205.402    21816200.152                       64928.621   113602750.415    85611481.694    92311516.587                          53.000          39.000          52.000
C37  26797093.875    26797096.012    26797089.105                         521.781   139539505.167   105157532.503   113387252.450                          37.000          26.000          37.000
C39  40187231.219    40187227.598    40187222.000                        1173.203   209265476.180   157703299.740   170045295.320                          39.000          23.000          38.000
C42  25117155.234    25117163.512    25117156.617                        2912.969   130791632.379    98565126.495   106278912.930                          41.000          30.000          43.000
C43  23705285.500    23705284.391    23705277.242                        1808.965   123439655.781    93024609.010   100304824.426                          48.000          34.000          47.000
C44  24208823.141    24208820.578    24208814.668                       62573.461   126061725.421    95000640.777   102435456.983                          44.000          29.000          44.000
C60  40614390.969                    40614368.043                       65024.301   211489843.584                   171852682.051                          36.000                          39.000
E02  28322385.852                    28322388.035    28322388.652        1917.246   148835138.344                   114042516.689   112592827.200          38.000                          40.000          40.000
E04  28695412.148                    28695415.785    28695415.906        2603.598   150795409.013                   115544544.835   114075760.792          37.000                          39.000          40.000
E11  23757759.695    23757755.832    23757759.672    23757759.805        1382.328   124847879.466    93230540.156    95662665.892    94446617.801          44.000          31.000          46.000          46.000
E12  22020803.953    22020801.992    22020804.453    22020804.723       64709.668   115720121.937    86414355.270    88668675.479    87541536.152          49.000          36.000          53.000          53.000
E19  25903395.641    25903395.129    25903398.402    25903398.938        1625.953   136123266.096   101650474.052   104302253.625   102976384.111          40.000          27.000          42.000          43.000
E24  25994356.875    25994356.809    25994359.164    25994359.664       62616.645   136601260.234   102007403.907   104668506.209   103337975.836          47.000          33.000          49.000          49.000
E25  25750981.078    25750982.527    25750984.789    25750985.277       65323.172   135322312.371   101052370.927   103688533.787   102370466.637          47.000          33.000          49.000          50.000
E33  26413736.055    26413735.027    26413738.680    26413739.109       62917.078   138805136.055   103653185.391   106357196.895   105005207.416          43.000          30.000          47.000          48.000
G08  21896914.242    21896921.488        2011.973   115069051.056    89664241.473          46.000          45.000
G10  20850686.375    20850692.645         299.410   109571234.535    85380125.487          55.000          50.000
G15  24315105.688    24315108.953       63441.992   127776688.869    99566319.199          39.000          35.000
G16  22201291.977    22201295.473       62362.578   116668468.516    90910595.191          47.000          38.000
G18  23364917.289    23364922.438       62113.391   122783416.790    95675472.195          41.000          42.000
G21  23956189.570    23956193.496        2152.941   125890560.648    98096623.533          38.000          23.000
G23  21344440.188    21344444.730       63443.125   112165749.687    87401958.122          48.000          48.000
G26  24467909.438    24467916.504       61461.570   128579630.032   100192032.911          37.000          35.000
G32  25417837.906    25417843.887        2809.992   133571531.109   104081817.740          36.000          34.000
R04  21595153.539    21595166.062       62855.738   115641075.787    89943127.434          49.000          48.000
R05  20408094.555    20408104.793        1359.016   109092985.036    84850149.206          54.000          52.000
R06  23420854.367                        4101.723   124978199.479                          32.000
R10  23450002.586                       60983.492   125001688.576                          42.000
R12  23117535.609    23117546.945        1727.297   123489711.923    96047603.664          46.000          42.000
R19  23631504.359    23631515.820       61881.820   126412598.312    98320963.407          32.000          39.000
R20  19855253.406    19855265.008       64264.125   106174882.488    82580620.438          43.000          52.000
R21  21377206.039    21377216.609        2178.090   114393697.704    88972975.568          50.000          48.000
> 2021 12 21 00 06 30.0000000  0 45
C02  40546084.414                    40546073.527    40546079.203       65094.078   211134085.749                   171563704.538   163262258.203          31.000                          35.000          39.000
C05  39051811.562                    39051801.344    39051808.309       65105.238   203352992.206                   165240949.805   157245453.704          36.000                          37.000          41.000
C06  40560703.945                    40560691.117    40560700.625        1526.559   211210225.123                   171625562.549   163321143.754          31.000                          33.000          36.000
C09  41447083.141                    41447071.648    41447083.250        1570.785   215825836.076                   175376127.407   166890230.315          31.000                          32.000          36.000
C11  22152782.625                    22152772.090    22152781.520         652.488   115355383.227                    93735656.269    89200103.098          50.000                          51.000          53.000
C12  22754219.062                    22754208.105    22754217.785       63512.523   118487223.734                    96280533.837    91621840.943          48.000                          50.000          52.000
C13  39975024.797                    39975017.609    39975028.645       64204.238   208160460.772                   169147400.673   160962895.266          37.000                          37.000          39.000
C14  26603756.586                    26603745.332    26603755.602        3111.344   138532743.005                   112569153.420   107122300.043          30.000                          33.000          37.000
C16  40620956.875                    40620948.207    40620959.711        1360.348   211523986.245                   171880528.552   163563773.462          36.000                          33.000          37.000
C21  22946234.922    22946230.945    22946221.570                         760.238   119487085.836    90045932.229    97092991.034                          51.000          37.000          51.000
C22  24542475.336    24542469.059    24542460.980                       63222.309   127799129.931    96309916.355   103847212.345                          45.000          32.000          45.000
C23  25682524.914    25682515.949    25682507.863                       63726.199   133735637.607   100783670.297   108671091.046                          40.000          27.000          41.000
C25  26546928.188    26546926.465    26546920.715                       62230.961   138236809.945   104175794.097   112328687.476                          39.000          23.000          37.000
C34  21819735.992    21819734.566    21819729.281                       64918.324   113621127.258    85625330.571    92326449.282                          53.000          39.000          52.000
C37  26794132.203    26794134.500    26794127.633                         506.363   139524083.050   105145910.320   113374720.701                          36.000          24.000          38.000
C39  40180487.031    40180482.758    40180476.887                        1168.566   209230353.354   157676831.035   170016755.163                          39.000          23.000          38.000
C42  25100387.414    25100395.508    25100388.848                        2908.129   130704317.634    98499325.768   106207962.578                          42.000          30.000          43.000
C43  23694878.609    23694877.930    23694870.766                        1803.688   123385466.687    92983771.890   100260791.352                          48.000          35.000          46.000
C44  24225906.430    24225903.832    24225898.250                       62567.969   126150683.353    95067679.838   102507742.581                          43.000          30.000          44.000
C60  40617339.969                    40617316.820                       65024.086   211505198.157                   171865158.901                          35.000                          39.000
E02  28311466.508                    28311468.824    28311469.145        1908.348   148777756.429                   113998548.688   112549418.123          39.000                          40.000          41.000
E04  28680541.062                    28680544.949    28680545.117        2606.203   150717261.808                   115484665.810   114016642.936          36.000                          41.000          42.000
E11  23749879.797    23749876.355    23749880.195    23749880.348        1378.105   124806472.328    93199619.235    95630938.341    94415293.570          45.000          29.000          45.000          46.000
E12  22025539.305    22025537.250    22025539.879    22025540.133       64703.316   115745006.575    86432937.954    88687742.925    87560361.217          49.000          36.000          53.000          54.000
E19  25894142.305    25894142.195    25894144.945    25894145.574        1615.879   136074639.526   101614162.012   104264994.330   102939598.457          41.000          28.000          42.000          43.000
E24  26011048.383    26011048.852    26011051.027    26011051.488       62607.672   136688976.555   102072906.338   104735717.394   103404332.646          47.000          33.000          49.000          49.000
E25  25752239.664    25752241.227    25752243.676    25752244.078       65307.926   135328927.568   101057310.843   103693602.564   102375470.983          46.000          32.000          49.000          50.000
E33  26428693.320    26428692.664    26428695.918    26428696.508       62914.922   138883738.219   103711881.793   106417424.494   105064669.417          43.000          30.000          46.000          47.000
G08  21885456.188    21885463.277        2002.176   115008838.826    89617322.861          46.000          45.000
G10  20849029.852    20849035.668         281.059   109562528.162    85373341.315          55.000          50.000
G15  24327112.102    24327116.012       63423.457   127839787.199    99615486.726          39.000          34.000
G16  22219447.406    22219451.090       62348.988   116763876.565    90984939.110          48.000          38.000
G18  23384466.922    23384471.449       62110.012   122886147.409    95755522.014          41.000          41.000
G21  23943913.875    23943917.148        2147.992   125826045.457    98046352.007          38.000          23.000
G23  21356436.516    21356440.879       63426.352   112228790.426    87451080.777          49.000          48.000
G26  24491171.430    24491179.281       61460.508   128701877.505   100287290.715          36.000          35.000
G32  25401789.281    25401797.086        2811.840   133487202.855   104016107.396          35.000          34.000
R04  21610234.969    21610247.777       62832.156   115721838.407    90005942.800          48.000          48.000
R05  20400540.242    20400550.668        1333.340   109052600.104    84818738.725          54.000          52.000
R06  23397803.977                        4098.727   124855196.842                          33.000
R10  23475637.406                       60978.832   125138337.015                          43.000
R12  23107898.828    23107909.000        1704.898   123438230.361    96007562.428          46.000          42.000
R19  23652007.422    23652019.848       61878.379   126522281.461    98406272.511          33.000          38.000
R20  19862422.609    19862434.277       64252.043   106213219.995    82610438.497          43.000          52.000
R21  21365013.133    21365023.484        2171.812   114328449.103    88922226.657          49.000          48.000
> 2021 12 21 00 07 00.0000000  0 44
C02  40548630.633                    40548620.062    40548625.621       65094.230   211147346.122                   171574479.684   163272511.979          31.000                          35.000          39.000
C05  39054293.992                    39054283.680    39054290.586       65105.285   203365918.660                   165251453.616   157255449.272          36.000                          38.000          41.000
C06  40551916.719                    40551904.023    40551913.895        1524.332   211164467.604                   171588380.840   163285761.163          32.000                          34.000          36.000
C09  41438037.445                    41438025.453    41438036.883        1570.215   215778729.809                   175337849.690   166853804.740          31.000                          32.000          36.000
C11  22149046.703                    22149036.082    22149045.438         644.746   115335928.727                    93719847.892    89185059.647          50.000                          51.000          53.000
C12  22765900.227                    22765889.047    22765898.820       63504.543   118548049.525                    96329959.773    91668875.297          48.000                          50.000          51.000
C13  39982694.195                    39982686.828    39982697.309       64205.648   208200395.086                   169179850.580   160993775.007          37.000                          37.000          39.000
C14  26585827.859                    26585815.984    26585827.125        3112.867   138439383.358                   112493291.048   107050108.430          28.000                          34.000          36.000
C16  40613129.562                    40613120.602    40613131.625        1357.207   211483226.106                   171847407.626   163532255.177          35.000                          32.000          37.000
C21  22941901.812    22941897.863    22941888.484                         744.195   119464522.472    90028928.389    97074656.464                          51.000          37.000          50.000
C22  24555845.016    24555839.008    24555830.770                       63208.582   127868749.741    96362382.136   103903784.146                          44.000          32.000          45.000
C23  25692990.250    25692981.355    25692973.676                       63712.914   133790135.236   100824739.937   108715374.812                          40.000          26.000          41.000
C25  26565974.648    26565972.152    26565966.621                       62229.484   138335986.324   104250533.865   112409276.418                          39.000          23.000          38.000
C34  21823323.625    21823322.082    21823317.031                       64908.457   113639809.576    85639409.650    92341630.203                          53.000          39.000          52.000
C37  26791257.711    26791260.566    26791253.824                         491.461   139509118.995   105134633.315   113362561.184                          36.000          26.000          39.000
C39  40173767.125    40173763.312    40173757.414                        1164.480   209195362.666   157650461.924   169988322.366                          39.000          25.000          39.000
C42  25083646.812    25083655.199    25083648.344                        2903.578   130617145.800    98433632.726   106137128.339                          42.000          30.000          43.000
C43  23684501.820    23684500.840    23684493.836                        1798.879   123331431.028    92943050.398   100216882.958                          48.000          33.000          47.000
C44  24243020.719    24243018.074    24243012.492                       62562.938   126239802.201    95134840.168   102580158.947                          44.000          30.000          44.000
C60  40620288.812                    40620265.621                       65024.461   211520553.226                   171877636.156                          35.000                          38.000
E02  28300596.984                    28300599.426    28300599.770        1899.840   148720636.952                   113954781.817   112506207.602          38.000                          40.000          41.000
E04  28665655.547                    28665659.262    28665659.824        2608.906   150639038.282                   115424728.328   113957467.358          36.000                          41.000          42.000
E11  23742023.812    23742020.113    23742024.039    23742024.082        1374.473   124765187.106    93168789.364    95599304.219    94384061.568          45.000          30.000          45.000          46.000
E12  22030309.633    22030307.551    22030310.203    22030310.488       64697.645   115770075.037    86451657.917    88706951.232    87579325.356          49.000          36.000          53.000          54.000
E19  25884946.180    25884945.820    25884948.613    25884949.367        1606.031   136026313.448   101578074.383   104227965.268   102903040.108          40.000          24.000          42.000          42.000
E24  26027790.492    26027790.586    26027792.512    26027793.129       62599.344   136776954.548   102138604.167   104803129.084   103470887.410          47.000          33.000          48.000          49.000
E25  25753584.156    25753585.906    25753588.266    25753588.688       65293.227   135335993.613   101062587.434   103699016.804   102380816.396          46.000          32.000          49.000          50.000
E33  26443663.148    26443661.840    26443665.234    26443665.711       62913.117   138962402.501   103770624.596   106477699.712   105124178.435          43.000          30.000          46.000          47.000
G08  21874053.461    21874060.848        1992.777   114948917.232    89570630.708          47.000          46.000
G10  20847476.492    20847483.008         263.191   109554367.970    85366982.737          56.000          50.000
G15  24339223.969    24339228.148       63405.570   127903435.768    99665082.994          38.000          34.000
G16  22237679.523    22237682.938       62336.020   116859685.884    91059595.709          47.000          38.000
G18  23404033.922    23404038.711       62106.957   122988976.337    95835648.429          40.000          41.000
G21  23931663.148    23931667.430        2143.570   125761675.044    97996193.280          38.000          23.000
G23  21368527.086    21368531.625       63410.129   112292327.628    87500590.281          49.000          48.000
G26  24514439.164    24514446.949       61460.105   128824149.091   100382567.229          36.000          36.000
G32  25385730.320    25385737.398        2814.605   133402807.504   103950344.818          35.000          34.000
R04  21625446.664    21625459.195       62809.254   115803300.040    90069301.855          48.000          48.000
R05  20393129.094    20393139.074        1308.043   109012982.919    84787925.370          53.000          52.000
R06  23374769.094                        4096.207   124732279.129                          31.000
R10  23501297.203                       60974.672   125275118.330                          43.000
R12  23098386.461    23098396.711        1682.895   123387416.420    95968040.457          46.000          43.000
R20  19869659.469    19869670.551       64240.527   106251914.022    82640533.854          42.000          52.000
R21  21352854.125    21352863.906        2166.113   114263382.799    88871619.540          49.000          48.000
> 2021 12 21 00 07 30.0000000  0 45
C02  40551177.945                    40551167.004    40551172.555       65094.184   211160607.949                   171585256.008   163282766.864          31.000                          35.000          39.000
C05  39056776.891                    39056766.691    39056773.625       65105.000   203378848.193                   165261959.918   157265447.205          36.000                          39.000          41.000
C06  40543143.695                    40543130.746    40543140.434        1521.617   211118782.276                   171551257.788   163250434.347          29.000                          33.000          36.000
C09  41428997.422                    41428984.840    41428996.328        1569.047   215731652.632                   175299595.641   166817401.692          30.000                          33.000          36.000
C11  22145357.172                    22145346.805    22145356.094         636.500   115316717.384                    93704237.113    89170204.230          50.000                          50.000          52.000
C12  22777628.914                    22777617.770    22777627.496       63496.188   118609123.734                    96379587.566    91716101.746          48.000                          50.000          52.000
C13  39990357.789                    39990349.953    39990360.582       64206.641   208240298.677                   169212275.506   161024630.995          37.000                          37.000          40.000
C14  26567891.711                    26567880.449    26567890.945        3113.594   138345987.604                   112417399.364   106977888.935          29.000                          35.000          37.000
C16  40605321.133                    40605312.195    40605323.402        1353.746   211442566.098                   171814368.035   163500814.296          37.000                          33.000          37.000
C21  22937662.836    22937659.191    22937649.625                         727.734   119442449.797    90012294.333    97056720.608                          51.000          38.000          51.000
C22  24569294.594    24569288.102    24569280.777                       63194.652   127938786.675    96415162.253   103960694.892                          45.000          32.000          45.000
C23  25703533.086    25703523.992    25703516.426                       63699.547   133845034.640   100866112.354   108759985.075                          40.000          26.000          41.000
C25  26585029.930    26585027.797    26585022.113                       62227.766   138435213.548   104325311.945   112489906.660                          39.000          23.000          37.000
C34  21826969.734    21826968.504    21826963.207                       64898.188   113658796.325    85653718.141    92357058.491                          53.000          39.000          52.000
C37  26788472.461    26788474.574    26788467.762                         476.098   139494612.212   105123700.967   113350773.212                          37.000          26.000          38.000
C39  40167072.219    40167068.672    40167063.031                        1159.945   209160503.125   157624191.651   169959996.147                          39.000          26.000          39.000
C42  25066934.258    25066942.184    25066935.277                        2898.793   130530117.496    98368047.867   106066410.747                          42.000          29.000          42.000
C43  23674154.289    23674153.258    23674146.098                        1793.648   123277548.354    92902444.190   100173098.871                          48.000          34.000          46.000
C44  24260165.562    24260163.027    24260157.508                       62557.543   126329080.059    95202120.318   102652704.501                          44.000          30.000          44.000
C60  40623237.523                    40623214.340                       65024.488   211535907.250                   171890112.560                          36.000                          39.000
E02  28289777.625                    28289779.695    28289780.320        1890.898   148663780.146                   113911216.192   112463195.773          38.000                          41.000          41.000
E04  28650756.094    28650755.727    28650759.492    28650759.953        2611.426   150560738.651   112431708.349   115364732.528   113898234.215          37.000          25.000          41.000          42.000
E11  23734190.219    23734186.668    23734190.652    23734190.723        1370.359   124724022.406    93138049.498    95567762.443    94352920.747          45.000          30.000          46.000          46.000
E12  22035114.516    22035112.668    22035115.285    22035115.516       64691.457   115795325.612    86470513.868    88726299.084    87598427.255          49.000          37.000          52.000          53.000
E19  25875807.297    25875806.605    25875809.727    25875810.355        1595.914   135978287.966   101542211.220   104191166.541   102866709.161          41.000          25.000          42.000          43.000
E24  26044581.219    26044581.363    26044583.219    26044583.957       62590.629   136865190.868   102204494.905   104870738.722   103537637.604          48.000          32.000          49.000          50.000
E25  25755014.359    25755016.223    25755018.379    25755018.848       65278.199   135343509.182   101068199.716   103704775.488   102386501.878          46.000          32.000          49.000          49.000
E33  26458643.766    26458642.805    26458645.961    26458646.512       62910.957   139041127.127   103829412.452   106538021.178   105183733.089          43.000          30.000          46.000          47.000
G08  21862705.977    21862713.477        1982.973   114889286.153    89524164.940          47.000          45.000
G10  20846027.328    20846033.797         244.887   109546752.653    85361048.729          56.000          50.000
G15  24351440.453    24351444.051       63387.242   127967631.481    99715105.647          38.000          36.000
G16  22255986.664    22255990.449       62322.637   116955892.508    91134561.898          47.000          38.000
G18  23423619.977    23423624.469       62103.695   123091900.991    95915849.453          41.000          40.000
G21  23919442.320    23919445.520        2138.648   125697448.311    97946146.538          39.000          22.000
G23  21380711.508    21380716.141       63393.578   112356357.804    87550483.937          49.000          48.000
G26  24537710.367    24537717.855       61459.473   128946440.769   100477859.449          37.000          35.000
G32  25369656.797    25369664.809        2816.488   133318346.241   103884530.835          35.000          35.000
R04  21640789.766    21640801.242       62786.121   115885456.381    90133201.257          49.000          47.000
R05  20385861.539    20385871.754        1282.262   108974134.268    84757709.761          54.000          52.000
R06  23351750.930                        4092.996   124609448.662                          33.000
R10  23526981.523                       60970.598   125412026.395                          43.000
R12  23088998.812    23089009.598        1660.547   123337271.283    95929038.676          46.000          42.000
R19  23693072.242    23693083.406       61871.914   126741948.062    98577124.267          31.000          37.000
R20  19876960.992    19876972.691       64228.621   106290962.659    82670905.023          43.000          52.000
R21  21340728.836    21340738.570        2159.910   114198498.248    88821153.781          49.000          48.000
> 2021 12 21 00 08 00.0000000  0 45
C02  40553724.859                    40553714.074    40553719.562       65093.719   211173871.774                   171596033.943   163293023.288          31.000                          35.000          39.000
C05  39059260.758                    39059250.438    39059257.273       65104.930   203391781.225                   165272469.079   157275447.854          36.000                          38.000          41.000
C06  40534384.930                    40534371.301    40534380.500        1519.262   211073170.123                   171514194.182   163215164.155          30.000                          34.000          35.000
C09  41419961.852                    41419950.074    41419961.383        1567.727   215684605.483                   175261365.994   166781021.862          29.000                          33.000          36.000
C11  22141714.758                    22141704.422    22141713.754         628.223   115297750.519                    93688824.975    89155537.853          51.000                          51.000          53.000
C12  22789405.172                    22789394.160    22789403.828       63487.805   118670446.778                    96429417.560    91763520.605          48.000                          50.000          51.000
C13  39998014.273                    39998007.141    39998017.648       64207.453   208280171.709                   169244675.602   161055463.346          37.000                          37.000          40.000
C14  26549950.148                    26549938.531    26549948.871        3115.141   138252558.005                   112341480.160   106905643.229          31.000                          35.000          36.000
C16  40597532.305                    40597523.590    40597534.383        1350.320   211402007.236                   171781410.622   163469451.605          36.000                          33.000          37.000
C21  22933517.836    22933514.707    22933505.312                         711.234   119420869.167    89996031.095    97039184.586                          51.000          37.000          50.000
C22  24582824.578    24582817.461    24582810.504                       63180.758   128009239.407    96468255.739   104017943.511                          45.000          31.000          45.000
C23  25714152.703    25714143.676    25714136.059                       63686.156   133900334.519   100907786.566   108804920.754                          39.000          26.000          41.000
C25  26604094.625    26604092.555    26604086.918                       62226.020   138534489.482   104400126.705   112570576.502                          38.000          23.000          36.000
C34  21830674.719    21830673.258    21830668.020                       64887.914   113678088.283    85668256.636    92372734.784                          53.000          39.000          52.000
C37  26785774.039    26785776.684    26785770.055                         460.707   139480563.908   105113114.079   113339357.799                          37.000          26.000          38.000
C39  40160403.156    40160399.645    40160394.102                        1155.445   209125775.493   157598020.785   169931777.105                          39.000          24.000          39.000
C42  25050249.656    25050257.383    25050250.523                        2893.676   130443235.408    98302573.195   105995811.947                          42.000          30.000          43.000
C43  23663836.320    23663835.223    23663828.125                        1788.484   123223820.045    92861954.319   100129440.227                          48.000          34.000          46.000
C44  24277341.164    24277338.547    24277332.703                       62552.188   126418516.834    95269520.240   102725379.193                          43.000          29.000          44.000
C60  40626185.508                    40626162.695                       65024.316   211551260.709                   171902588.506                          36.000                          38.000
E02  28279008.484    28279007.238    28279010.629    28279011.102        1882.035   148607188.056   110972882.475   113867853.418   112420384.226          38.000          25.000          40.000          41.000
E04  28635841.945    28635842.316    28635845.227    28635845.895        2613.691   150482365.036   112373182.587   115304680.006   113838945.075          37.000          25.000          41.000          42.000
E11  23726380.023    23726376.484    23726380.312    23726380.410        1366.109   124682978.637    93107399.927    95536313.328    94321871.406          45.000          31.000          46.000          46.000
E12  22039954.422    22039952.434    22039955.047    22039955.238       64685.277   115820758.502    86489505.959    88745786.620    87617667.068          49.000          36.000          52.000          53.000
E19  25866726.141    25866725.445    25866728.344    25866729.051        1585.680   135930565.323   101506574.210   104154599.853   102830607.307          41.000          28.000          42.000          43.000
E24  26061420.875    26061421.449    26061423.012    26061423.703       62582.004   136953684.094   102270577.499   104938545.214   103604582.139          48.000          33.000          48.000          49.000
E25  25756530.336    25756532.258    25756534.230    25756534.656       65263.066   135351474.880   101074148.113   103710879.074   102392527.880          46.000          32.000          49.000          50.000
E33  26473636.086    26473635.336    26473638.227    26473638.789       62908.836   139119912.253   103888245.482   106598388.989   105243333.521          44.000          30.000          45.000          46.000
G08  21851414.195    21851421.941        1973.141   114829948.302    89477927.657          47.000          45.000
G10  20844682.227    20844688.336         226.676   109539682.809    85355539.770          55.000          50.000
G15  24363760.352    24363764.355       63368.949   128032373.379    99765553.889          38.000          36.000
G16  22274369.547    22274373.367       62309.461   117052494.368    91209836.067          47.000          38.000
G18  23443224.453    23443228.516       62100.504   123194920.833    95996124.637          40.000          40.000
G21  23907247.391    23907250.680        2133.793   125633365.865    97896212.183          38.000          22.000
G23  21392989.750    21392994.059       63377.191   112420879.300    87600760.425          49.000          47.000
G26  24560985.047    24560992.773       61458.953   129068750.333   100573165.592          36.000          35.000
G32  25353572.727    25353580.762        2818.172   133233822.001   103818667.813          36.000          33.000
R04  21656261.242    21656272.176       62762.996   115968304.133    90197638.416          49.000          47.000
R05  20378738.461    20378748.578        1256.473   108936056.947    84728094.089          54.000          52.000
R06  23328750.531                        4089.980   124486709.784                          33.000
R10  23552687.938                       60966.387   125549057.154                          43.000
R12  23079737.164    23079747.344        1637.844   123287798.029    95890559.482          46.000          42.000
R19  23713632.977    23713642.844       61868.359   126851929.018    98662665.020          30.000          38.000
R20  19884329.883    19884341.609       64216.609   106330367.172    82701552.981          42.000          52.000
R21  21328637.492    21328647.512        2153.664   114133796.812    88770830.441          50.000          48.000
> 2021 12 21 00 08 30.0000000  0 45
C02  40556271.820                    40556260.977    40556266.699       65094.168   211187135.361                   171606811.699   163303279.539          31.000                          36.000          39.000
C05  39061744.633                    39061734.277    39061741.293       65104.984   203404715.749                   165282979.440   157285449.660          35.000                          38.000          41.000
C06  40525637.773                    40525625.676    40525634.367        1517.031   211027629.663                   171477188.849   163179949.375          29.000                          35.000          35.000
C09  41410932.062                    41410920.438    41410931.695        1567.191   215637586.844                   175223159.523   166744664.089          30.000                          33.000          37.000
C11  22138119.180                    22138108.773    22138117.988         620.180   115279026.861                    93673610.478    89141059.531          49.000                          51.000          53.000
C12  22801228.984                    22801218.004    22801227.578       63479.703   118732016.508                    96479447.980    91811130.213          48.000                          50.000          51.000
C13  40005665.211                    40005658.371    40005668.422       64208.559   208320012.397                   169277049.409   161086270.675          37.000                          38.000          40.000
C14  26532001.695                    26531989.602    26532000.016        3116.516   138159094.534                   112265533.432   106833371.365          31.000                          33.000          36.000
C16  40589762.602                    40589753.633    40589765.035        1347.090   211361547.982                   171748534.204   163438165.975          35.000                          34.000          37.000
C21  22929467.766    22929464.895    22929455.289                         694.926   119399779.560    89980137.892    97022047.565                          52.000          37.000          51.000
C22  24596433.453    24596426.238    24596419.348                       63167.172   128080104.173    96521659.731   104075526.939                          45.000          32.000          45.000
C23  25724848.258    25724839.727    25724832.094                       63673.066   133956031.147   100949759.740   108850178.802                          38.000          25.000          41.000
C25  26623168.047    26623166.332    26623160.332                       62224.699   138633809.740   104474974.843   112651282.352                          38.000          23.000          36.000
C34  21834437.703    21834436.422    21834431.145                       64877.891   113697683.886    85683023.970    92388657.819                          53.000          40.000          53.000
C37  26783164.219    26783166.504    26783160.023                         445.762   139466972.780   105102871.758   113328313.910                          36.000          24.000          38.000
C39  40153759.617    40153755.668    40153749.988                        1151.137   209091178.361   157571948.253   169903664.125                          39.000          26.000          39.000
C42  25033592.938    25033600.715    25033593.703                        2888.934   130356499.659    98237208.793   105925332.069                          42.000          30.000          43.000
C43  23653547.836    23653546.750    23653539.605                        1783.434   123170245.120    92821580.025   100085906.207                          48.000          34.000          46.000
C44  24294546.391    24294543.934    24294538.355                       62547.168   126508110.159    95337038.132   102798181.104                          43.000          30.000          44.000
C60  40629133.180                    40629110.711                       65024.598   211566611.470                   171915062.260                          36.000                          38.000
E02  28268289.836    28268288.328    28268291.621    28268292.105        1873.383   148550860.439   110930819.661   113824693.271   112377772.741          38.000          26.000          40.000          40.000
E04  28620913.688    28620913.953    28620916.977    28620917.703        2616.312   150403917.174   112314601.391   115244570.588   113779599.760          37.000          24.000          40.000          41.000
E11  23718592.172    23718588.652    23718592.523    23718592.719        1362.270   124642053.912    93076839.256    95504955.425    94290912.117          45.000          30.000          46.000          46.000
E12  22044828.438    22044826.461    22044829.098    22044829.246       64679.332   115846371.495    86508632.554    88765412.170    87637043.138          49.000          36.000          53.000          54.000
E19  25857702.414    25857701.859    25857704.797    25857705.219        1575.871   135883145.168   101471163.061   104118264.941   102794734.281          41.000          27.000          43.000          43.000
E24  26078308.750    26078308.770    26078311.012    26078311.648       62573.680   137042430.367   102336849.046   105006545.591   103671718.100          48.000          32.000          49.000          50.000
E25  25758131.281    25758133.211    25758135.398    25758135.809       65248.281   135359888.893   101080431.310   103717326.174   102398893.018          47.000          33.000          49.000          49.000
E33  26488639.508    26488638.773    26488641.547    26488642.258       62907.086   139198755.658   103947122.039   106658801.465   105302978.037          44.000          31.000          46.000          47.000
G08  21840178.898    21840186.070        1963.402   114770903.604    89431918.811          47.000          46.000
G10  20843440.258    20843446.352         208.668   109533156.625    85350454.443          56.000          50.000
G15  24376183.008    24376186.676       63351.082   128097657.584    99816424.714          38.000          36.000
G16  22292826.508    22292830.168       62296.629   117149486.576    91285414.391          47.000          37.000
G18  23462845.867    23462850.379       62097.504   123298032.951    96076471.723          41.000          40.000
G21  23895079.711    23895082.742        2129.156   125569425.854    97846388.843          38.000          22.000
G23  21405360.617    21405365.074       63361.133   112485888.139    87651416.676          49.000          47.000
G26  24584262.258    24584269.895       61458.652   129191073.269   100668482.171          35.000          34.000
G32  25337476.820    25337483.629        2820.801   133149235.382   103752756.169          36.000          33.000
R04  21671860.500    21671872.297       62740.309   116051838.411    90262609.530          49.000          48.000
R05  20371759.633    20371769.906        1230.852   108898751.142    84699078.472          54.000          52.000
R06  23305765.984                        4086.938   124364064.322                          33.000
R10  23578416.797                       60962.699   125686204.601                          43.000
R12  23070602.227    23070611.578        1615.652   123238997.460    95852603.466          45.000          42.000
R19  23734211.359    23734221.473       61865.352   126962006.041    98748280.423          30.000          38.000
R20  19891764.430    19891776.121       64204.949   106370124.938    82732475.688          43.000          52.000
R21  21316580.586    21316590.609        2147.723   114069278.057    88720649.199          49.000          48.000
> 2021 12 21 00 09 00.0000000  0 45
C02  40558819.344                    40558808.684    40558814.398       65093.469   211200401.017                   171617591.130   163313537.390          31.000                          33.000          38.000
C05  39064229.977                    39064219.008    39064225.930       65104.750   203417653.788                   165293492.662   157295454.177          36.000                          38.000          41.000
C06  40516907.398                    40516894.516    40516904.008        1514.355   210982163.639                   171440244.007   163144792.182          29.000                          34.000          37.000
C09  41401908.711                    41401896.852    41401908.586        1565.648   215590599.365                   175184978.363   166708330.388          31.000                          33.000          38.000
C11  22134570.742                    22134560.371    22134569.586         611.750   115260549.382                    93658596.015    89126771.581          50.000                          51.000          53.000
C12  22813100.680                    22813089.504    22813099.293       63471.191   118793834.836                    96529680.446    91858932.057          48.000                          50.000          52.000
C13  40013310.602                    40013303.297    40013313.746       64209.484   208359822.440                   169309398.317   161117054.317          37.000                          38.000          41.000
C14  26514047.352                    26514035.246    26514045.617        3116.645   138065601.224                   112189562.445   106761076.419          31.000                          34.000          35.000
C16  40582012.102                    40582003.383    40582014.250        1343.375   211321190.920                   171715740.791   163406959.350          35.000                          34.000          37.000
C21  22925512.688    22925509.664    22925500.141                         678.203   119379183.968    89964616.984    97005311.975                          51.000          38.000          51.000
C22  24610121.242    24610113.855    24610107.121                       63153.203   128151381.231    96575374.436   104133445.396                          45.000          31.000          45.000
C23  25735620.078    25735611.777    25735604.273                       63659.441   134012124.744   100992032.115   108895759.433                          38.000          26.000          41.000
C25  26642250.281    26642248.312    26642242.078                       62222.977   138733173.845   104549856.083   112732023.823                          38.000          23.000          36.000
C34  21838259.773    21838258.395    21838253.090                       64867.445   113717585.585    85698021.979    92404829.591                          53.000          39.000          52.000
C37  26780642.016    26780645.031    26780638.547                         429.930   139453841.666   105092976.099   113317643.786                          37.000          24.000          38.000
C39  40147141.070    40147137.027    40147131.312                        1146.637   209056714.186   157545975.928   169875659.176                          39.000          26.000          39.000
C42  25016964.984    25016972.895    25016966.090                        2883.645   130269914.521    98171957.892   105854974.561                          43.000          30.000          44.000
C43  23643289.438    23643288.082    23643281.156                        1777.953   123116826.640    92781323.641   100042499.321                          48.000          34.000          46.000
C44  24311782.250    24311779.988    24311774.125                       62541.578   126597861.591    95404675.179   102871111.482                          44.000          30.000          43.000
C60  40632081.430                    40632058.488                       65024.129   211581961.705                   171927535.585                          36.000                          37.000
E02  28257622.000    28257620.613    28257624.098    28257624.426        1864.031   148494801.111   110888957.113   113781738.688   112335364.183          37.000          22.000          40.000          41.000
E04  28605972.039    28605972.141    28605975.211    28605976.047        2618.383   150325398.819   112255967.553   115184407.166   113720201.128          36.000          24.000          39.000          41.000
E11  23710827.523    23710823.992    23710827.961    23710828.109        1358.070   124601250.464    93046369.164    95473690.461    94260044.587          46.000          30.000          46.000          46.000
E12  22049736.945    22049734.770    22049737.648    22049737.832       64673.051   115872166.453    86527895.025    88785177.134    87656556.855          49.000          36.000          53.000          53.000
E19  25848737.000    25848736.043    25848739.363    25848739.777        1565.219   135836031.335   101435980.682   104082164.749   102759092.991          41.000          26.000          43.000          43.000
E24  26095244.586    26095244.555    26095247.180    26095247.773       62565.102   137131429.947   102403309.755   105074740.062   103739045.690          47.000          32.000          49.000          50.000
E25  25759818.281    25759820.375    25759822.152    25759822.621       65233.020   135368753.432   101087050.925   103724118.483   102405598.983          46.000          33.000          48.000          50.000
E33  26503654.781    26503653.820    26503656.723    26503657.250       62904.863   139277659.231   104006043.514   106719260.043   105362668.067          44.000          30.000          46.000          47.000
G08  21828998.875    21829006.473        1953.262   114712156.033    89386141.487          47.000          46.000
G10  20842302.133    20842308.391         190.180   109527176.323    85345794.478          56.000          50.000
G15  24388709.477    24388713.914       63332.773   128163484.357    99867718.317          38.000          36.000
G16  22311357.625    22311361.602       62283.398   117246868.356    91361296.300          47.000          38.000
G18  23482485.281    23482489.672       62094.109   123401238.424    96156891.544          41.000          41.000
G21  23882940.211    23882943.094        2123.938   125505631.057    97796678.648          39.000          22.000
G23  21417824.055    21417828.438       63344.582   112551384.394    87702452.719          49.000          47.000
G26  24607542.062    24607549.938       61457.969   129313409.026   100763808.739          38.000          35.000
G32  25321368.992    25321376.789        2822.406   133064591.330   103686799.727          36.000          34.000
R04  21687587.984    21687599.781       62717.211   116136057.991    90328113.642          48.000          48.000
R05  20364925.625    20364936.484        1204.617   108862221.576    84670666.605          54.000          52.000
R06  23282801.734                        4083.004   124241518.362                          34.000
R10  23604166.242                       60958.656   125823465.579                          42.000
R12  23061593.375    23061603.512        1592.766   123190874.379    95815174.383          46.000          42.000
R19  23754806.906    23754817.930       61861.684   127072180.580    98833971.722          30.000          38.000
R20  19899265.695    19899277.598       64192.820   106410238.333    82763674.998          43.000          52.000
R21  21304558.453    21304568.203        2141.227   114004944.873    88670612.289          50.000          47.000
> 2021 12 21 00 09 30.0000000  0 45
C02  40561367.758                    40561356.453    40561361.977       65093.887   211213667.939                   171628371.604   163323796.225          31.000                          35.000          38.000
C05  39066714.703                    39066704.113    39066711.188       65104.594   203430594.757                   165304008.270   157305460.967          36.000                          39.000          41.000
C06  40508189.742                    40508177.457    40508186.762        1512.043   210936771.941                   171403359.529   163109692.437          31.000                          34.000          37.000
C09  41392891.453                    41392879.445    41392891.195        1564.746   215543643.026                   175146822.523   166672020.792          30.000                          34.000          39.000
C11  22131069.461                    22131059.258    22131068.602         603.676   115242318.268                    93643781.753    89112674.126          50.000                          51.000          53.000
C12  22825019.906                    22825008.684    22825018.555       63463.074   118855901.097                    96580114.354    91906925.617          48.000                          50.000          52.000
C13  40020949.672                    40020942.492    40020953.363       64210.645   208399601.483                   169341722.051   161147813.987          37.000                          37.000          40.000
C14  26496086.070                    26496075.594    26496085.691        3117.500   137972079.300                   112113568.240   106688759.328          30.000                          33.000          35.000
C16  40574281.445                    40574272.938    40574283.809        1340.016   211280936.032                   171683030.407   163375831.722          36.000                          34.000          37.000
C21  22921652.625    22921649.293    22921639.988                         661.934   119359082.690    89949468.594    96988978.050                          51.000          37.000          51.000
C22  24623888.344    24623880.699    24623873.652                       63139.754   128223068.207    96629398.057   104191696.948                          44.000          32.000          45.000
C23  25746468.812    25746460.023    25746452.371                       63646.492   134068613.005   101034601.872   108941660.740                          39.000          27.000          41.000
C25  26661339.906    26661337.637    26661331.551                       62221.926   138832578.801   104624768.132   112812798.517                          38.000          22.000          35.000
C34  21842140.133    21842138.961    21842133.797                       64857.391   113737793.216    85713250.540    92421249.945                          53.000          39.000          52.000
C37  26778209.617    26778211.422    26778205.102                         414.848   139441170.572   105083427.084   113307347.487                          35.000          26.000          39.000
C39  40140547.773    40140544.055    40140538.461                        1142.227   209022382.857   157520103.697   169847762.165                          39.000          23.000          39.000
C42  25000366.336    25000374.328    25000367.520                        2878.574   130183481.540    98106821.667   105784740.706                          43.000          30.000          44.000
C43  23633060.914    23633059.863    23633052.789                        1772.773   123063564.994    92741185.448    99999219.873                          48.000          34.000          47.000
C44  24329048.539    24329046.031    24329040.094                       62536.570   126687770.104    95472430.614   102944169.512                          44.000          30.000          44.000
C60  40635029.664                    40635006.207                       65024.496   211597310.684                   171940007.888                          35.000                          38.000
E02  28247005.352    28247004.656    28247007.781    28247008.184        1855.375   148439011.126   110847295.742   113738990.520   112293159.409          38.000          23.000          41.000          41.000
E04  28591017.555    28591017.727    28591020.855    28591021.180        2620.754   150246811.120   112197281.895   115124190.583   113660750.025          37.000          22.000          40.000          40.000
E11  23703085.969    23703082.504    23703086.184    23703086.438        1354.121   124560567.801    93015989.248    95442518.031    94229268.419          45.000          30.000          46.000          46.000
E12  22054680.141    22054677.965    22054680.746    22054680.957       64667.156   115898142.610    86547292.814    88805080.949    87676207.658          48.000          36.000          53.000          54.000
E19  25839830.102    25839829.180    25839832.418    25839832.777        1555.105   135789224.864   101401027.809   104046300.056   102723684.208          41.000          27.000          42.000          43.000
E24  26112228.461    26112227.961    26112231.098    26112231.602       62556.859   137220680.356   102469957.779   105143126.723   103806563.031          47.000          32.000          49.000          50.000
E25  25761591.031    25761592.926    25761594.645    25761595.152       65218.086   135378068.048   101094006.647   103731255.656   102412645.432          47.000          33.000          48.000          49.000
E33  26518680.852    26518680.047    26518682.910    26518683.492       62902.949   139356622.119   104065009.289   106779764.057   105422402.958          44.000          31.000          46.000          47.000
G08  21817876.766    21817884.336        1943.348   114653707.220    89340596.970          47.000          45.000
G10  20841267.945    20841274.375         172.164   109521741.435    85341559.516          56.000          50.000
G15  24401338.602    24401342.863       63314.750   128229851.510    99919432.989          39.000          36.000
G16  22329962.680    22329966.449       62270.703   117344636.750    91437479.444          47.000          37.000
G18  23502142.328    23502146.430       62091.254   123504535.688    96237382.901          41.000          40.000
G21  23870827.805    23870831.191        2119.223   125441980.938    97747081.188          39.000          22.000
G23  21430379.859    21430384.199       63328.668   112617365.360    87753866.463          49.000          47.000
G26  24630824.086    24630831.895       61457.738   129435754.371   100859142.745          37.000          35.000
G32  25305251.250    25305258.871        2824.156   132979891.632   103620799.989          36.000          33.000
R04  21703442.023    21703454.383       62694.648   116220959.294    90394147.975          48.000          48.000
R05  20358237.531    20358247.801        1178.820   108826469.911    84642859.778          54.000          52.000
R06  23259854.820                        4079.727   124119075.147                          33.000
R10  23629936.461                       60955.254   125960836.222                          43.000
R12  23052711.672    23052721.441        1570.199   123143430.890    95778273.914          45.000          42.000
R19  23775421.344    23775431.539       61858.723   127182452.074    98919738.413          31.000          36.000
R20  19906834.039    19906845.488       64181.195   106450707.032    82795150.661          43.000          52.000
R21  21292571.055    21292581.070        2135.238   113940797.775    88620720.101          50.000          48.000
> 2021 12 21 00 10 00.0000000  0 45
C02  40563916.438                    40563904.625    40563910.262       65093.379   211226936.986                   171639153.793   163334056.692          31.000                          34.000          39.000
C05  39069200.180                    39069189.969    39069196.879       65104.379   203443539.472                   165314526.907   157315470.640          36.000                          38.000          41.000
C06  40499487.047                    40499474.672    40499484.703        1509.129   210891455.987                   171366536.646   163074651.306          32.000                          34.000          37.000
C09  41383881.094                    41383868.418    41383879.730        1563.398   215496719.207                   175108693.063   166635736.304          32.000                          34.000          38.000
C11  22127616.281                    22127605.832    22127615.148         595.152   115224335.217                    93629169.051    89098768.492          50.000                          51.000          53.000
C12  22836987.047                    22836975.582    22836985.273       63454.516   118918215.884                    96630750.220    91955111.352          47.000                          50.000          52.000
C13  40028583.000                    40028575.754    40028586.172       64211.297   208439350.091                   169374021.033   161178550.119          37.000                          37.000          40.000
C14  26478123.508                    26478110.711    26478121.523        3118.453   137878531.535                   112037553.028   106616422.279          31.000                          33.000          36.000
C16  40566571.242                    40566562.379    40566573.262        1336.391   211240784.624                   171650404.113   163344784.094          37.000                          34.000          37.000
C21  22917888.086    22917884.363    22917874.965                         645.094   119339477.465    89934694.026    96973047.211                          51.000          38.000          51.000
C22  24637732.781    24637726.637    24637719.051                       63125.898   128295164.070    96683729.798   104250280.743                          44.000          32.000          44.000
C23  25757392.320    25757383.453    25757376.242                       63633.355   134125494.884   101077468.295   108987881.915                          38.000          27.000          41.000
C25  26680437.055    26680434.707    26680428.602                       62220.477   138932022.887   104699709.611   112893604.994                          37.000          24.000          36.000
C34  21846079.898    21846078.516    21846073.391                       64846.941   113758307.949    85728710.530    92437919.848                          53.000          39.000          53.000
C37  26775863.773    26775866.801    26775860.543                         399.199   139428960.968   105074225.841   113297426.162                          35.000          24.000          38.000
C39  40133980.469    40133976.684    40133971.145                        1137.621   208988185.580   157494332.472   169819974.085                          39.000          24.000          39.000
C42  24983797.875    24983805.551    24983798.648                        2873.203   130097203.682    98041802.330   105714632.899                          43.000          31.000          43.000
C43  23622862.938    23622861.781    23622854.996                        1767.305   123010461.982    92701166.789    99956069.325                          49.000          34.000          46.000
C44  24346344.930    24346342.281    24346336.461                       62531.039   126777836.005    95540304.643   103017355.420                          44.000          30.000          44.000
C60  40637976.438                    40637953.477                       65024.227   211612659.236                   171952479.845                          36.000                          38.000
E02  28236440.586    28236439.879    28236443.219    28236443.395        1845.965   148383493.020   110805837.427   113696450.668   112251160.321          37.000          24.000          41.000          42.000
E04  28576050.367    28576050.051    28576053.422    28576053.832        2622.785   150168156.590   112138546.364   115063922.814   113601248.363          38.000          25.000          40.000          41.000
E11  23695367.297    23695363.922    23695367.691    23695367.895        1349.875   124520006.758    92985700.175    95411438.799    94198584.267          46.000          31.000          46.000          46.000
E12  22059657.711    22059655.812    22059658.434    22059658.633       64660.906   115924300.516    86566826.314    88825124.021    87695995.944          49.000          36.000          53.000          53.000
E19  25830981.953    25830981.180    25830984.355    25830984.777        1544.574   135742728.270   101366306.333   104010672.803   102688509.846          41.000          26.000          42.000          43.000
E24  26129259.789    26129259.184    26129262.348    26129262.863       62548.465   137310180.577   102536792.352   105211704.795   103874269.344          46.000          32.000          49.000          49.000
E25  25763449.461    25763451.215    25763452.879    25763453.473       65202.832   135387833.689   101101299.160   103738738.413   102420033.072          46.000          33.000          49.000          50.000
E33  26533718.258    26533717.609    26533720.520    26533721.113       62900.766   139435644.904   104124019.785   106840313.973   105482183.163          44.000          31.000          46.000          47.000
G08  21806811.523    21806819.199        1933.141   114595559.912    89295287.388          47.000          46.000
G10  20840337.703    20840344.008         153.766   109516852.844    85337750.234          56.000          50.000
G15  24414071.172    24414074.855       63296.793   128296757.935    99971567.861          39.000          36.000
G16  22348640.258    22348644.148       62257.746   117442789.729    91513962.273          48.000          37.000
G18  23521816.680    23521820.793       62088.086   123607924.567    96317945.640          41.000          41.000
G21  23858742.562    23858746.582        2114.359   125378476.519    97697597.281          39.000          23.000
G23  21443027.617    21443031.793       63312.379   112683829.840    87805656.968          49.000          47.000
G26  24654106.539    24654114.230       61457.250   129558107.670   100954482.979          36.000          34.000
G32  25289124.078    25289130.691        2825.609   132895139.896   103554759.683          34.000          34.000
R04  21719423.773    21719436.375       62671.922   116306539.758    90460710.552          48.000          48.000
R05  20351695.727    20351706.180        1152.516   108791499.471    84615660.562          54.000          52.000
R06  23236928.773                        4075.820   123996739.428                          33.000
R10  23655726.688                       60951.641   126098312.704                          42.000
R12  23043958.438    23043968.219        1547.133   123096670.414    95741904.643          45.000          42.000
R19  23796052.508    23796064.078       61855.242   127292820.258    99005580.392          32.000          36.000
R20  19914468.258    19914480.301       64169.055   106491531.418    82826902.967          43.000          52.000
R21  21280618.562    21280628.848        2128.688   113876838.843    88570974.284          50.000          48.000
> 2021 12 21 00 10 30.0000000  0 45
C02  40566465.156                    40566453.820    40566459.410       65093.406   211240211.637                   171649940.533   163344321.504          31.000                          35.000          39.000
C05  39071687.547                    39071677.379    39071684.395       65104.066   203456491.413                   165325051.432   157325485.916          36.000                          38.000          41.000
C06  40490799.883                    40490787.715    40490796.684        1506.523   210846219.795                   171329778.501   163039671.822          31.000                          34.000          37.000
C09  41374876.109                    41374863.824    41374875.289        1562.320   215449831.924                   175070593.326   166599480.114          32.000                          34.000          39.000
C11  22124211.211                    22124200.832    22124210.195         586.750   115206604.569                    93614761.446    89085058.031          50.000                          51.000          53.000
C12  22849002.234                    22848990.934    22849000.664       63446.219   118980782.637                    96681590.812    92003491.919          48.000                          50.000          52.000
C13  40036210.906                    40036203.711    40036214.328       64212.309   208479071.644                   169406298.045   161209265.346          37.000                          37.000          40.000
C14  26460154.234                    26460141.852    26460151.402        3119.316   137784963.405                   111961521.236   106544069.441          31.000                          33.000          32.000
C16  40558880.953                    40558872.234    40558883.109        1333.000   211200740.575                   171617865.067   163313819.529          36.000                          34.000          37.000
C21  22914219.188    22914215.148    22914206.102                         628.426   119320372.676    89920296.593    96957523.011                          50.000          38.000          51.000
C22  24651657.281    24651650.879    24651643.258                       63112.262   128367670.450    96738370.896   104309198.109                          45.000          32.000          44.000
C23  25768391.750    25768383.160    25768376.051                       63620.184   134182772.107   101120632.639   109034424.331                          38.000          26.000          42.000
C25  26699541.523    26699539.602    26699533.715                       62219.109   139031507.229   104774681.436   112974444.201                          37.000          23.000          36.000
C34  21850079.273    21850077.867    21850072.746                       64836.602   113779133.714    85744404.909    92454842.487                          53.000          39.000          52.000
C37  26773608.703    26773611.285    26773604.922                         383.789   139417217.018   105065375.586   113287883.260                          36.000          23.000          39.000
C39  40127439.758    40127436.227    40127430.449                        1132.832   208954126.312   157468665.298   169792298.159                          39.000          25.000          39.000
C42  24967259.875    24967267.598    24967260.953                        2867.789   130011086.628    97976904.182   105644655.755                          43.000          31.000          44.000
C43  23612696.469    23612695.578    23612688.383                        1761.836   122957522.143    92661271.109    99913051.371                          48.000          34.000          47.000
C44  24363671.578    24363669.180    24363663.363                       62525.750   126868062.383    95608299.624   103090671.738                          45.000          30.000          43.000
C60  40640925.164                    40640901.797                       65024.305   211628010.815                   171964954.256                          36.000                          38.000
E02  28225928.594    28225927.461    28225930.719    28225931.277        1836.656   148328251.955   110764586.001   113654123.091   112209370.819          37.000          24.000          41.000          41.000
E04  28561070.898    28561071.020    28561074.145    28561074.668        2624.766   150089440.571   112079764.890   115003607.925   113541700.192          38.000          25.000          41.000          42.000
E11  23687672.586    23687669.125    23687672.859    23687673.180        1345.707   124479571.029    92955504.669    95380455.577    94167994.902          46.000          31.000          46.000          46.000
E12  22064670.688    22064668.805    22064671.359    22064671.551       64654.785   115950643.538    86586498.056    88845308.939    87715924.272          49.000          36.000          52.000          53.000
E19  25822194.117    25822193.242    25822196.344    25822196.758        1534.180   135696546.778   101331820.164   103975287.001   102653573.861          42.000          26.000          42.000          42.000
E24  26146338.875    26146338.344    26146341.516    26146342.004       62540.043   137399932.276   102603814.715   105280475.568   103942165.919          47.000          31.000          49.000          50.000
E25  25765394.000    25765396.023    25765397.730    25765398.332       65187.668   135398053.997   101108931.207   103746569.557   102427764.665          47.000          33.000          49.000          50.000
E33  26548767.930    26548767.129    26548770.215    26548770.766       62898.680   139514730.966   104183077.546   106900912.376   105542011.245          44.000          30.000          47.000          48.000
G08  21795804.938    21795812.531        1922.848   114537718.972    89250216.531          47.000          46.000
G10  20839512.258    20839518.301         135.426   109512514.226    85334369.497          56.000          50.000
G15  24426906.117    24426909.609       63278.711   128364205.562   100024124.448          38.000          36.000
G16  22367391.398    22367395.387       62244.961   117541327.412    91590744.869          48.000          36.000
G18  23541509.109    23541513.102       62084.949   123711407.712    96398581.841          42.000          41.000
G21  23846687.453    23846691.051        2109.293   125315122.004    97648230.148          39.000          22.000
G23  21455767.586    21455772.094       63296.219   112750779.298    87857825.379          49.000          47.000
G26  24677391.469    24677398.656       61457.031   129680469.912   101049830.165          36.000          32.000
G32  25272986.945    25272994.230        2827.438   132810342.213   103488683.554          35.000          34.000
R04  21735532.125    21735544.480       62649.359   116392799.641    90527801.590          49.000          47.000
R05  20345300.633    20345311.023        1126.273   108757315.945    84589073.390          54.000          51.000
R06  23214025.906                        4071.918   123874518.712                          34.000
R10  23681536.500                       60948.164   126235894.164                          43.000
R12  23035332.859    23035342.945        1524.152   123050599.038    95706071.337          45.000          42.000
R19  23816703.633    23816716.219       61852.270   127403288.781    99091500.318          33.000          37.000
R20  19922170.375    19922181.645       64157.125   106532715.492    82858935.018          43.000          52.000
R21  21268703.086    21268712.500        2122.258   113813072.983    88521378.613          50.000          48.000
> 2021 12 21 00 11 00.0000000  0 45
C02  40569014.875                                                       65093.285   211253491.428                                                          31.000
C05  39074176.492                    39074165.762    39074172.547       65103.965   203469450.114                   165335581.439   157335506.407          36.000                          38.000          41.000
C06  40482128.594                    40482116.305    40482125.340        1504.082   210801063.404                   171293085.258   163004754.061          32.000                          35.000          37.000
C09  41365879.023                    41365866.855    41365878.539        1561.012   215402981.373                   175032523.414   166563252.294          30.000                          33.000          39.000
C11  22120854.711                    22120844.391    22120853.656         578.477   115189126.700                    93600559.251    89071543.030          49.000                          51.000          53.000
C12  22861065.617                    22861054.418    22861064.371       63437.977   119043600.757                    96732635.681    92052066.866          48.000                          50.000          52.000
C13  40043834.039                    40043826.633    40043837.352       64213.473   208518765.732                   169438552.739   161239959.319          37.000                          37.000          40.000
C14  26442180.070                    26442169.855    26442179.742        3119.926   137691376.337                   111885474.068   106471701.935          29.000                          33.000          35.000
C16  40551211.828                    40551202.613    40551213.949        1329.441   211160804.134                   171585413.426   163282938.145          35.000                          33.000          38.000
C21  22910646.352    22910642.484    22910633.273                         611.871   119301768.740    89906276.590    96942405.785                          51.000          37.000          50.000
C22  24665659.969    24665653.551    24665645.730                       63098.867   128440585.118    96793319.699   104368447.257                          45.000          32.000          45.000
C23  25779466.555    25779458.160    25779450.973                       63607.152   134240442.437   101164093.184   109081286.158                          39.000          26.000          41.000
C25  26718653.641    26718651.832    26718645.762                       62217.984   139131028.897   104849681.395   113055313.726                          37.000          22.000          36.000
C34  21854138.383    21854137.012    21854131.895                       64826.348   113800270.453    85760333.646    92472017.815                          54.000          39.000          52.000
C37  26771443.438    26771445.496    26771439.121                         368.277   139405939.012   105056876.419   113278718.951                          37.000          23.000          38.000
C39  40120925.445    40120922.008    40120916.207                        1128.570   208920205.049   157443102.086   169764734.361                          39.000          26.000          39.000
C42  24950753.344    24950760.789    24950754.137                        2862.539   129925132.133    97912128.541   105574810.708                          42.000          30.000          43.000
C43  23602561.359    23602560.309    23602553.344                        1756.641   122904746.033    92621498.812    99870166.462                          49.000          34.000          47.000
C44  24381029.242    24381027.039    24381021.254                       62520.527   126958448.331    95676414.832   103164117.714                          44.000          31.000          44.000
C60  40643873.156                    40643850.320                       65024.297   211643364.999                   171977430.791                          36.000                          38.000
E02  28215469.023    28215468.164    28215472.172    28215472.168        1827.477   148273289.221   110723542.377   113612008.763   112167791.848          37.000          24.000          41.000          41.000
E04  28546080.109    28546080.660    28546083.801    28546084.207        2626.980   150010664.340   112020938.486   114943246.924   113482106.482          37.000          26.000          40.000          42.000
E11  23680001.859    23679998.750    23680002.027    23680002.301        1341.742   124439260.263    92925402.473    95349568.113    94137500.070          46.000          31.000          46.000          46.000
E12  22069718.531    22069716.680    22069719.328    22069719.566       64648.789   115977171.062    86606307.578    88865635.230    87735992.174          49.000          36.000          53.000          54.000
E19  25813466.133    25813465.258    25813468.484    25813468.926        1523.754   135650681.679   101297570.271   103940143.628   102618877.226          42.000          26.000          42.000          43.000
E24  26163465.734    26163465.293    26163468.031    26163468.531       62531.949   137489933.127   102671023.141   105349437.248   104010250.973          47.000          31.000          48.000          48.000
E25  25767425.508    25767427.277    25767429.074    25767429.676       65172.742   135408728.606   101116902.503   103754748.807   102435839.941          46.000          33.000          48.000          49.000
E33  26563829.180    26563828.508    26563831.781    26563832.336       62896.820   139593879.604   104242182.036   106961558.717   105601886.654          44.000          31.000          47.000          47.000
G08  21784857.000    21784864.492        1912.684   114480186.413    89205385.970          47.000          46.000
G10  20838790.969    20838797.348         117.289   109508725.200    85331417.018          55.000          51.000
G15  24439843.250    24439847.184       63260.828   128432192.115   100077100.999          39.000          35.000
G16  22386215.227    22386219.211       62232.461   117640247.733    91667825.630          47.000          37.000
G18  23561218.500    23561222.852       62082.117   123814983.642    96479290.342          42.000          40.000
G21  23834659.633    23834662.770        2104.312   125251916.824    97598979.417          39.000          22.000
G23  21468599.648    21468603.938       63280.352   112818211.204    87910369.731          50.000          47.000
G26  24700677.023    24700684.484       61457.031   129802838.008   101145181.983          37.000          31.000
G32  25256842.211    25256849.477        2828.844   132725500.966   103422573.498          35.000          33.000
R04  21751767.008    21751779.543       62627.016   116479735.289    90595418.214          49.000          48.000
R05  20339053.664    20339063.949        1100.137   108723921.095    84563099.632          54.000          52.000
R06  23191142.633                        4068.203   123752416.690                          34.000
R10  23707365.070                       60945.152   126373575.823                          42.000
R12  23026837.477    23026848.164        1501.184   123005219.103    95670775.830          45.000          42.000
R19  23837373.609    23837384.867       61849.008   127513856.342    99177497.313          31.000          37.000
R20  19929939.336    19929950.414       64145.406   106574258.836    82891246.518          43.000          52.000
R21  21256822.641    21256832.820        2115.930   113749500.602    88471933.437          50.000          48.000
> 2021 12 21 00 11 30.0000000  0 44
C05  39076665.922                    39076654.918    39076661.828       65103.797   203482411.601                   165346113.713   157345529.060          36.000                          38.000          41.000
C06  40473470.938                    40473459.137    40473468.301        1501.238   210755983.514                   171256454.163   162969895.420          32.000                          36.000          38.000
C09  41356888.000                    41356875.945    41356887.676        1559.875   215356164.098                   174994480.564   166527050.231          30.000                          33.000          38.000
C11  22117546.523                    22117535.910    22117545.160         569.992   115171898.521                    93586559.939    89058221.112          49.000                          51.000          53.000
C12  22873177.055                    22873165.504    22873175.441       63429.688   119106666.263                    96783881.558    92100833.103          47.000                          50.000          52.000
C13  40051450.375                    40051443.289    40051454.035       64214.246   208558428.358                   169470781.864   161270628.969          37.000                          37.000          39.000
C14  26424205.508                    26424192.988    26424203.465        3120.816   137597768.286                   111809409.807   106399318.266          32.000                          33.000          37.000
C16  40543562.172                    40543553.535    40543564.367        1325.953   211120971.793                   171553046.389   163252137.275          36.000                          34.000          38.000
C21  22907168.781    22907165.289    22907156.059                         595.195   119283662.508    89892631.674    96927693.001                          51.000          37.000          51.000
C22  24679739.805    24679733.848    24679725.426                       63085.344   128513902.299    96848571.835   104428023.475                          45.000          33.000          45.000
C23  25790616.344    25790607.715    25790600.117                       63594.281   134298500.041   101207845.610   109128462.715                          39.000          27.000          41.000
C25  26737772.086    26737769.773    26737763.875                       62217.008   139230581.472   104924704.636   113136208.351                          38.000          23.000          37.000
C34  21858256.477    21858255.164    21858249.871                       64816.020   113821714.608    85776494.058    92489442.953                          53.000          39.000          52.000
C37  26769367.164    26769368.586    26769362.180                         352.770   139395123.516   105048725.804   113269930.464                          37.000          23.000          38.000
C39  40114436.672    40114433.574    40114427.805                        1123.902   208886418.286   157417640.269   169737279.867                          37.000          26.000          39.000
C42  24934277.656    24934285.035    24934278.359                        2857.062   129839338.387    97847474.036   105505096.281                          43.000          29.000          44.000
C43  23592456.961    23592456.207    23592448.996                        1751.066   122852130.741    92581847.712    99827412.232                          48.000          34.000          47.000
C44  24398416.820    24398414.590    24398408.645                       62515.395   127048989.408    95744646.958   103237689.742                          44.000          31.000          44.000
C60  40646821.945                    40646798.746                       65024.004   211658717.829                   171989906.226                          36.000                          38.000
E02  28205062.867    28205061.871    28205065.488    28205065.727        1818.316   148218602.408   110682704.779   113570105.871   112126421.607          37.000          24.000          41.000          42.000
E04  28531078.172    28531078.324    28531081.105    28531081.652        2628.871   149931825.566   111962065.397   114882838.007   113422465.478          38.000          26.000          41.000          42.000
E11  23672354.273    23672350.527    23672354.086    23672354.395        1337.656   124399070.597    92895390.722    95318773.438    94107096.860          46.000          31.000          46.000          46.000
E12  22074800.977    22074798.828    22074801.664    22074801.875       64642.672   116003878.871    86626251.726    88886099.658    87756196.464          49.000          36.000          53.000          54.000
E19  25804798.125    25804797.305    25804800.457    25804800.828        1513.008   135605130.580   101263554.854   103905240.854   102584418.128          42.000          25.000          43.000          44.000
E24  26180638.422    26180638.402    26180640.684    26180641.395       62523.781   137580177.279   102738413.243   105418585.364   104078520.085          46.000          32.000          48.000          48.000
E25  25769542.695    25769544.352    25769546.102    25769546.738       65157.582   135419853.656   101125210.174   103763273.197   102444255.965          46.000          34.000          48.000          49.000
E33  26578901.805    26578901.250    26578904.371    26578904.914       62894.695   139673086.618   104301330.112   107022249.790   105661806.229          43.000          30.000          47.000          48.000
G08  21773967.172    21773974.594        1902.316   114422960.477    89160794.344          47.000          46.000
G10  20838173.953    20838179.992          98.973   109505481.810    85328889.707          57.000          50.000
G15  24452882.109    24452886.121       63242.988   128500711.777   100130492.942          39.000          36.000
G16  22405110.609    22405114.676       62219.785   117739543.773    91745199.154          46.000          37.000
G18  23580945.266    23580949.578       62079.055   123918647.533    96560067.381          42.000          40.000
G21  23822659.102    23822662.785        2099.391   125188857.386    97549842.226          41.000          22.000
G23  21481521.922    21481526.312       63264.418   112886119.479    87963285.265          49.000          47.000
G26  24723962.766    24723970.559       61457.020   129925205.381   101240533.205          38.000          34.000
G32  25240689.922    25240696.910        2830.105   132640614.771   103356428.396          35.000          34.000
R04  21768126.508    21768137.996       62604.672   116567339.106    90663554.510          48.000          47.000
R05  20332953.383    20332963.887        1073.770   108691313.123    84537737.887          54.000          52.000
R06  23168283.305                        4063.988   123630432.847                          32.000
R10  23733211.938                       60941.996   126511349.672                          42.000
R12  23018471.500    23018482.582        1478.051   122960528.932    95636016.807          45.000          42.000
R19  23858059.180    23858069.379       61845.711   127624518.692    99263567.976          32.000          36.000
R20  19937774.234    19937785.719       64133.395   106616157.512    82923834.376          43.000          52.000
R21  21244978.016    21244988.094        2109.473   113686119.179    88422636.765          50.000          48.000
> 2021 12 21 00 12 00.0000000  0 44
C05  39079155.805                    39079145.012    39079152.219       65103.961   203495378.355                   165356650.264   157355555.780          36.000                          38.000          41.000
C06  40464828.812                    40464817.246    40464826.371        1498.883   210710983.127                   171219887.678   162935098.245          33.000                          36.000          37.000
C09  41347903.891                    41347892.316    41347903.562        1558.852   215309383.002                   174956467.092   166490876.142          32.000                          32.000          38.000
C11  22114286.172                    22114276.078    22114285.156         561.758   115154923.356                    93572766.226    89045094.836          50.000                          51.000          53.000
C12  22885335.734                    22885324.512    22885334.359       63421.531   119169981.343                    96835330.240    92149792.330          47.000                          50.000          52.000
C13  40059062.234                    40059054.617    40059065.246       64215.457   208598061.849                   169502987.321   161301276.107          38.000                          37.000          40.000
C14  26406226.086                    26406213.676    26406223.473        3121.305   137504143.645                   111733332.121   106326921.725          32.000                          34.000          36.000
C16  40535932.984                    40535924.668    40535935.496        1322.496   211081246.464                   171520766.307   163221419.142          35.000                          34.000          37.000
C21  22903787.750    22903784.516    22903775.168                         578.652   119266057.285    89879364.322    96913387.331                          52.000          38.000          51.000
C22  24693897.195    24693890.898    24693882.773                       63072.148   128587622.518    96904127.706   104487927.195                          45.000          32.000          45.000
C23  25801839.922    25801831.324    25801823.898                       63581.609   134356945.586   101251890.387   109175954.473                          40.000          28.000          41.000
C25  26756895.516    26756893.695    26756887.727                       62216.242   139330164.966   104999751.212   113217128.129                          37.000          23.000          36.000
C34  21862434.336    21862432.934    21862427.672                       64805.863   113843468.979    85792888.233    92507120.159                          53.000          39.000          53.000
C37  26767378.867    26767381.086    26767374.652                         337.367   139384773.585   105040926.052   113261520.296                          36.000          24.000          39.000
C39  40107975.305    40107971.535    40107965.727                        1119.648   208852768.921   157392281.972   169709937.004                          39.000          27.000          39.000
C42  24917833.352    24917841.023    24917834.301                        2851.711   129753709.995    97782944.143   105435516.213                          42.000          31.000          44.000
C43  23582384.359    23582383.590    23582376.387                        1745.801   122799679.716    92542320.407    99784791.480                          49.000          34.000          47.000
C44  24415834.672    24415832.297    24415826.586                       62510.250   127139687.641    95812997.497   103311389.462                          44.000          31.000          43.000
C60  40649770.680                    40649747.344                       65024.504   211674071.660                   172002382.475                          36.000                          38.000
E02  28194709.312    28194709.109    28194712.152    28194712.516        1808.953   148164195.772   110642076.437   113528417.656   112085263.324          36.000          25.000          41.000          42.000
E04  28516064.031    28516064.410    28516067.609    28516068.008        2631.031   149852928.496   111903148.733   114822384.382   113362780.335          38.000          24.000          40.000          41.000
E11  23664729.680    23664726.184    23664729.820    23664730.051        1333.711   124359004.568    92865471.295    95288073.495    94076787.177          46.000          30.000          46.000          46.000
E12  22079918.117    22079916.102    22079918.691    22079918.941       64636.773   116030769.228    86646332.189    88906703.960    87776538.851          49.000          36.000          53.000          54.000
E19  25796190.547    25796189.457    25796193.051    25796193.352        1502.453   135559897.618   101229777.005   103870581.843   102550199.700          42.000          26.000          43.000          44.000
E24  26197857.727    26197857.398    26197860.023    26197860.730       62515.828   137670665.321   102805985.479   105487920.354   104146973.695          47.000          32.000          48.000          48.000
E25  25771745.859    25771747.828    25771749.516    25771749.941       65142.738   135431431.656   101133856.070   103772144.644   102453014.641          46.000          33.000          48.000          49.000
E33  26593985.688    26593985.133    26593988.500    26593989.086       62892.879   139752354.279   104360523.487   107082987.333   105721771.684          43.000          29.000          47.000          47.000
G08  21763136.664    21763144.121        1892.191   114366045.058    89116444.658          47.000          46.000
G10  20837660.812    20837667.207          80.867   109502786.552    85326789.515          57.000          50.000
G15  24466022.031    24466025.828       63225.426   128569765.057   100184300.698          38.000          36.000
G16  22424077.641    22424081.535       62207.594   117839214.928    91822864.966          47.000          37.000
G18  23600688.664    23600693.164       62076.254   124022400.871    96640914.115          41.000          40.000
G21  23810688.312    23810692.031        2094.711   125125946.431    97500820.737          40.000          25.000
G23  21494535.391    21494539.516       63248.762   112954504.507    88016572.299          49.000          47.000
G26  24747248.484    24747256.227       61457.156   130047572.113   101335883.888          34.000          35.000
G32  25224529.180    25224535.211        2831.781   132555688.711   103290252.251          35.000          33.000
R04  21784610.891    21784622.094       62582.707   116655610.430    90732209.982          48.000          47.000
R05  20327001.883    20327012.020        1047.477   108659496.791    84512991.865          54.000          52.000
R06  23145447.773                        4060.004   123508573.860                          33.000
R10  23759074.664                       60939.281   126649212.932                          42.000
R12  23010236.336    23010247.059        1455.137   122916533.528    95601798.141          44.000          42.000
R19  23878765.539    23878776.844       61842.562   127735277.719    99349713.921          32.000          37.000
R20  19945676.297    19945688.234       64121.711   106658413.896    82956700.450          43.000          53.000
R21  21233170.406    21233180.496        2103.195   113622932.037    88373491.221          51.000          49.000
