     3.04           OBSERVATION DATA    M                   RINEX VERSION / TYPE
HEADER CHANGED BY EPN CB ON 2020-02-06                      COMMENT
TO BE CONFORM WITH THE INFORMATION IN                       COMMENT
ftp://epncb.oma.be/pub/station/log/dour.log                 COMMENT
                                                            COMMENT
sbf2rin-13.4.3                          20200114 000232 UTC PGM / RUN BY / DATE
ROB GNSS Network Data, https://doi.org/10.24414/FST8-P256   COMMENT
DOUR                                                        MARKER NAME
13113M001                                                   MARKER NUMBER
GEODETIC                                                    MARKER TYPE
ROB                 ROB                                     OBSERVER / AGENCY
3001319             SEPT POLARX4        2.9.6-patch2        REC # / TYPE / VERS
09300021            LEIAR25.R3      NONE                    ANT # / TYPE
  4086778.4060   328451.7490  4869782.4150                  APPROX POSITION XYZ
        0.7619        0.0000        0.0000                  ANTENNA: DELTA H/E/N
G   14 C1C L1C S1C C1W S1W C2W L2W S2W C2L L2L S2L C5Q L5Q  SYS / # / OBS TYPES
       S5Q                                                  SYS / # / OBS TYPES
E   12 C1C L1C S1C C5Q L5Q S5Q C7Q L7Q S7Q C8Q L8Q S8Q      SYS / # / OBS TYPES
R   12 C1C L1C S1C C2P L2P S2P C2C L2C S2C C3Q L3Q S3Q      SYS / # / OBS TYPES
SEPTENTRIO RECEIVERS OUTPUT ALIGNED CARRIER PHASES.         COMMENT
NO FURTHER PHASE SHIFT APPLIED IN THE RINEX ENCODER.        COMMENT
G L1C                                                       SYS / PHASE SHIFT
G L2W                                                       SYS / PHASE SHIFT
G L2L  0.00000                                              SYS / PHASE SHIFT
G L5Q  0.00000                                              SYS / PHASE SHIFT
E L1C  0.00000                                              SYS / PHASE SHIFT
E L5Q  0.00000                                              SYS / PHASE SHIFT
E L7Q  0.00000                                              SYS / PHASE SHIFT
E L8Q  0.00000                                              SYS / PHASE SHIFT
R L1C                                                       SYS / PHASE SHIFT
R L2P  0.00000                                              SYS / PHASE SHIFT
R L2C                                                       SYS / PHASE SHIFT
R L3Q  0.00000                                              SYS / PHASE SHIFT
    30.000                                                  INTERVAL
  2020     1    13     0     0    0.0000000     GPS         TIME OF FIRST OBS
  2020     1    13    23    59   30.0000000     GPS         TIME OF LAST OBS
    80                                                      # OF SATELLITES
 C1C    0.000 C2C    0.000 C2P    0.000                     GLONASS COD/PHS/BIS
DBHZ                                                        SIGNAL STRENGTH UNIT
 23 R01  1 R02 -4 R03  5 R04  6 R05  1 R06 -4 R07  5 R08  6 GLONASS SLOT / FRQ #
    R09 -2 R10 -5 R11  0 R12 -1 R13 -2 R14 -7 R15  0 R16 -1 GLONASS SLOT / FRQ #
    R17  4 R18 -3 R19  3 R20  2 R21  4 R22 -3 R23  3        GLONASS SLOT / FRQ #
                                                            END OF HEADER
> 2020 01 13 00 00  0.0000000  0 32
E02  27477918.930 6 144397441.68406        41.000    27477921.743 6 107829266.42006        41.000    27477918.705 7 110642187.25007        42.250    27477919.689 7 109235733.34307        44.750
E11  24061628.878 7 126444735.38807        45.750    24061628.415 7  94423021.85507        46.250    24061625.131 7  96886217.95507        46.750    24061626.490 8  95654618.41008        49.500
E12  21833998.786 7 114738456.12307        44.500    21833998.778 8  85681323.08308        48.250    21833995.916 8  87916481.92608        49.250    21833996.967 8  86798908.50908        51.750
E14  22753569.113 7 119570822.52707        42.500    22753572.160 7  89289917.93307        44.000    22753568.736 7  91619193.22107        44.250    22753570.060 7  90454559.08307        47.000
E19  26884115.733 6 141276991.11906        39.000    26884118.066 6 105499069.83106        37.500    26884115.029 6 108251203.52306        39.000    26884116.152 6 106875133.68206        41.250
E20  21797629.642 5 114547320.75505        35.500
E24  23592896.751 7 123981509.19707        45.250    23592911.726 7  92583653.06207        45.750    23592908.342 7  94998856.20407        47.000    23592909.265 8  93791248.13608        49.500
E25  24785939.117 7 130250987.75507        47.500    24785942.831 8  97265357.49608        49.000    24785939.530 8  99802700.23008        50.000    24785940.630 8  98534028.36708        52.500
E33  27284794.040 6 143382579.66706        40.750    27284796.672 7 107071424.54007        42.750    27284792.878 7 109864575.98307        42.250    27284794.376 7 108468008.26807        45.500
E36  28350563.345 6 148983212.14306        38.750    28350568.214 6 111253716.63606        36.750    28350564.497 6 114155976.00706        36.000    28350566.231 6 112704848.33006        39.500
G07  24343160.476 7 127924165.34807        44.000    24343160.244 4        27.000    24343158.243 4  99681160.45804        27.000    24343158.259 6  99681158.45606        36.500
G08  22066972.697 8 115962743.22508        49.750    22066972.308 6        40.250    22066973.597 6  90360588.06806        40.250    22066974.558 7  90360577.07907        44.000    22066973.685 8  86595566.42308        50.250
G10  21692702.043 8 113995920.05308        50.000    21692702.008 7        42.000    21692702.921 7  88828001.28507        42.000    21692702.813 7  88827996.28407        46.000    21692702.221 8  85126830.56408        51.250
G11  25609027.121 5 134576337.93105        34.750    25609026.487 2        15.500    25609025.970 2 104864678.61802        15.500
G13  25307299.792 6 132990754.21106        38.000    25307299.403 2        16.250    25307297.313 2 103629146.56202        16.250
G15  24597960.009 7 129263163.87507        42.750    24597960.044 4        25.750    24597958.415 4 100724537.10604        25.750    24597958.129 6 100724532.09706        37.000
G16  21335082.184 7 112116612.54607        47.000    21335081.626 6        38.000    21335080.310 6  87363587.25506        38.000
G18  24515760.814 6 128831194.27706        41.500    24515760.533 3        23.250    24515760.638 3 100387942.93503        23.250
G20  21142922.495 8 111106821.49908        48.250    21142921.632 6        39.250    21142920.337 6  86576736.95206        39.250
G21  23119284.403 7 121492668.03007        46.000    23119283.576 5        34.500    23119282.046 5  94669603.12005        34.500
G26  22972092.352 7 120719160.08207        45.750    22972092.080 5        33.750    22972094.571 5  94066892.36505        33.750    22972094.636 7  94066889.36307        42.000    22972093.934 7  90147425.75707        46.250
G27  20341885.039 8 106897347.45108        50.250    20341884.735 7        45.250    20341885.492 7  83296642.91207        45.250    20341884.994 8  83296645.91708        48.500    20341886.009 8  79825956.95408        53.750
G30  25341016.592 6 133167945.69706        37.500    25341016.119 2        17.750    25341016.828 2 103767229.84602        17.750    25341018.071 5 103767230.84805        33.500    25341017.998 6  99443596.87006        40.500
R06  21552326.442 7 115007369.01807        45.250
R07  21694819.306 8 116134059.73708        49.000    21694820.725 7  90326512.36207        45.000    21694820.392 7  90326516.36307        44.750
R08  24261727.064 6 129920448.41906        38.750    24261727.013 6 101049235.89306        37.250    24261726.271 6 101049234.88706        36.500
R12  22035627.370 8 117710354.27608        50.000    22035630.727 7  91552500.02607        43.500    22035631.125 7  91552502.03007        43.250
R13  20656111.679 6 110302478.94106        39.250    20656113.981 7  85790821.43807        42.750    20656113.154 6  85790823.44106        39.750
R14  22883760.823 7 121983328.51307        46.000    22883764.716 7  94875924.86207        42.500    22883764.242 7  94875873.84607        42.750
R21  23105382.753 7 123641580.84207        47.000    23105384.499 6  96165682.89006        40.750    23105384.112 6  96165683.89006        41.250    23105367.010 6  92641524.36106        41.500
R22  19666265.127 8 104979867.94208        50.000    19666267.572 8  81651036.42508        49.750    19666267.661 8  81651043.42508        49.500
R23  21126673.753 8 113013475.55708        49.750    21126678.220 6  87899392.56106        40.500    21126677.845 6  87899390.57106        40.750
> 2020 01 13 00 00 30.0000000  0 32
E02  27463856.975 6 144323545.21506        40.500    27463859.641 6 107774084.01606        41.500    27463856.239 6 110585565.27506        40.500    27463857.393 7 109179831.15707        44.250
E11  24052963.547 7 126399197.43307        45.750    24052962.903 7  94389016.25107        46.250    24052959.463 7  96851325.25707        46.250    24052960.906 8  95620169.25908        49.250
E12  21839698.754 7 114768410.61007        44.500    21839698.910 8  85703691.69708        48.250    21839696.010 8  87939434.06508        49.000    21839697.132 8  86821568.88408        51.500
E14  22791308.731 7 119769143.73607        42.750    22791311.536 7  89438014.86807        44.000    22791308.037 7  91771153.56707        44.250    22791309.356 7  90604587.72307        47.250
E19  26871663.282 6 141211551.94406        39.250    26871665.470 6 105450202.92806        38.000    26871662.320 6 108201061.81406        39.250    26871663.475 6 106825629.37906        41.750
E20  21796581.726 5 114541817.66605        35.750
E24  23607865.653 7 124060170.58807        45.750    23607880.547 7  92642393.71207        46.000    23607877.074 7  95059129.21707        47.000    23607878.039 8  93850754.96708        49.500
E25  24785708.515 7 130249776.13907        47.750    24785712.322 8  97264452.70808        49.000    24785708.922 8  99801771.84308        49.750    24785710.059 8  98533111.77908        52.500
E33  27299156.467 6 143458053.29506        41.000    27299158.952 7 107127784.69007        42.750    27299155.105 7 109922406.40907        42.000    27299156.606 7 108525103.55707        45.500
E36  28335754.498 6 148905390.76706        39.750    28335759.187 6 111195603.25606        37.000    28335755.530 6 114096346.65006        36.000    28335757.294 6 112645976.96206        39.500
G07  24342918.055 7 127922892.71607        43.500    24342917.819 4        26.750    24342915.872 4  99680168.79104        26.750    24342915.930 6  99680166.80106        36.000
G08  22052379.970 8 115886057.70908        49.000    22052379.590 6        40.250    22052380.734 6  90300833.13306        40.250    22052381.452 7  90300822.14507        44.500    22052380.977 8  86538301.28008        50.250
G10  21681424.490 8 113936655.46508        49.500    21681424.446 7        42.000    21681425.198 7  88781821.10807        42.000    21681424.887 7  88781816.11507        46.250    21681424.543 8  85082574.56908        51.500
G11  25588526.473 5 134468607.35205        33.750    25588525.923 2        13.500    25588525.723 2 104780732.68902        13.500
G13  25308948.996 6 132999419.30406        38.250    25308948.616 2        16.500    25308946.246 2 103635898.57402        16.500
G15  24596909.990 7 129257645.76207        43.500    24596910.025 4        26.250    24596908.326 4 100720237.28604        26.250    24596908.766 6 100720232.28506        36.750
G16  21348848.475 7 112188955.26307        47.000    21348847.930 6        38.000    21348846.638 6  87419958.19206        38.000
G18  24494363.804 6 128718751.42706        41.500    24494363.509 3        23.250    24494363.213 3 100300325.14903        23.250
G20  21144486.662 8 111115041.26708        48.000    21144485.799 6        39.250    21144484.434 6  86583141.97406        39.250
G21  23133901.010 7 121569478.82107        46.250    23133900.183 5        34.500    23133898.443 5  94729455.68605        34.500
G26  22991878.896 7 120823138.55207        45.000    22991878.624 5        33.500    22991881.009 5  94147914.54605        33.500    22991880.485 7  94147911.54607        42.000    22991880.415 7  90225072.00907        46.000
G27  20337828.476 8 106876030.41508        50.250    20337828.172 7        45.250    20337828.992 7  83280032.23207        45.250    20337828.864 8  83280035.23408        49.000    20337829.506 9  79810038.39009        54.000
G30  25332239.335 6 133121817.57606        38.000    25332238.866 3        18.750    25332239.521 3 103731285.86103        18.750    25332240.298 5 103731286.85805        33.000    25332239.601 6  99409150.52906        39.500
R06  21556240.934 7 115028260.56307        44.500
R07  21678083.266 8 116044471.14808        48.500    21678084.649 7  90256832.37207        45.000    21678084.654 7  90256836.36407        44.500
R08  24236885.423 6 129787417.53706        39.750    24236884.449 6 100945767.41206        37.500    24236884.637 6 100945766.41406        37.500
R12  22058197.770 8 117830918.66308        50.000    22058200.651 7  91646272.33407        43.250    22058200.961 7  91646274.31607        42.750
R13  20659455.842 6 110320337.04006        39.250    20659458.129 7  85804711.06607        42.750    20659458.265 6  85804713.07106        39.750
R14  22866199.331 7 121889710.99107        47.250    22866201.614 6  94803111.21806        41.250    22866201.873 6  94803060.19206        41.000
R21  23124141.943 8 123741965.86008        48.000    23124144.011 6  96243760.11106        41.000    23124143.783 6  96243761.08406        40.500    23124126.366 6  92716740.34706        41.000
R22  19672108.744 8 105011061.69008        50.250    19672111.191 8  81675298.22508        49.750    19672111.298 8  81675305.22308        49.500
R23  21112031.848 8 112935147.34608        50.750    21112035.494 6  87838470.64306        40.250    21112034.439 6  87838468.64406        40.750
> 2020 01 13 00 01  0.0000000  0 32
E02  27449843.119 6 144249900.12806        40.750    27449845.140 6 107719089.30906        41.000    27449841.451 6 110529135.91406        40.000    27449842.836 7 109124119.12407        43.500
E11  24044335.279 7 126353855.88307        45.750    24044334.612 7  94355157.31707        46.500    24044331.202 7  96816583.03907        46.250    24044332.673 8  95585868.68308        49.250
E12  21845436.948 7 114798565.14107        44.500    21845437.132 8  85726209.68108        48.250    21845434.289 8  87962539.47408        49.000    21845435.364 8  86844380.58208        51.750
E14  22829077.888 7 119967622.99507        43.000    22829080.774 7  89586229.86107        44.000    22829077.453 7  91923235.04607        44.500    22829078.714 7  90754735.95807        47.250
E19  26859260.736 6 141146376.86806        39.500    26859263.086 6 105401533.23906        38.000    26859259.978 6 108151122.47006        39.750    26859261.031 6 106776324.85906        41.750
E20  21795618.147 5 114536751.34405        35.750
E24  23622883.910 7 124139092.09207        45.750    23622898.813 7  92701328.60507        46.000    23622895.267 7  95119601.54907        47.000    23622896.324 8  93910458.58008        49.500
E25  24785564.255 7 130249017.57907        47.500    24785567.919 8  97263886.23908        49.250    24785564.592 8  99801190.59508        49.750    24785565.711 8  98532537.92108        52.500
E33  27313523.463 6 143533552.94906        40.750    27313526.106 7 107184164.27407        43.000    27313522.116 7 109980256.76307        42.000    27313523.791 7 108582218.52207        45.500
E36  28320953.362 6 148827611.00306        40.750    28320957.671 6 111137520.95506        37.000    28320955.223 6 114036749.15406        37.000    28320956.353 6 112587137.07106        40.000
G07  24342779.587 7 127922163.62407        44.500    24342779.342 4        27.000    24342777.216 4  99679600.67604        27.000    24342777.508 5  99679598.65705        35.750
G08  22037828.899 8 115809591.82008        49.250    22037828.524 6        40.250    22037829.850 6  90241249.33206        40.250    22037830.564 7  90241238.33607        45.000    22037829.956 8  86481200.14808        50.500
G10  21670240.545 8 113877883.83408        50.000    21670240.496 7        42.250    21670241.370 7  88736025.05307        42.250    21670240.947 7  88736020.05607        46.500    21670240.656 8  85038686.69108        51.500
G11  25568027.414 5 134360879.51205        34.750    25568026.923 2        15.500    25568025.909 2 104696788.88102        15.500
G13  25310705.155 6 133008648.80506        37.750    25310704.784 2        15.250    25310702.758 2 103643090.39502        15.250
G15  24595969.309 7 129252702.38607        44.000    24595969.335 4        26.250    24595967.613 4 100716385.30204        26.250    24595967.895 6 100716380.30506        36.250
G16  21362701.758 7 112261754.75707        47.250    21362701.213 6        38.000    21362699.819 6  87476685.06806        38.000
G18  24472984.338 6 128606402.69306        41.500    24472984.043 3        23.500    24472983.921 3 100212780.69503        23.500
G20  21146164.039 8 111123855.21108        48.250    21146163.172 6        39.250    21146161.691 6  86590009.98906        39.250
G21  23148538.998 7 121646401.62007        46.500    23148538.171 5        34.750    23148536.456 5  94789395.52605        34.750
G26  23011706.773 7 120927337.09407        45.250    23011706.487 5        33.250    23011709.341 5  94229108.19505        33.250    23011709.412 6  94229105.20306        41.750    23011708.684 7  90302882.60707        45.750
G27  20333848.833 8 106855117.54108        50.250    20333848.529 7        45.250    20333849.315 7  83263736.48407        45.250    20333849.226 8  83263739.49308        49.000    20333849.908 9  79794421.63009        54.000
G30  25323553.298 6 133076173.60906        39.250    25323552.878 3        19.250    25323553.340 3 103695719.11203        19.250    25323553.391 5 103695720.10905        33.500    25323554.371 6  99375065.74606        40.500
R06  21560308.526 7 115049964.95207        44.000
R07  21661451.928 8 115955440.39808        48.750    21661453.084 7  90187586.25207        45.000    21661452.776 7  90187590.23807        44.750
R08  24212034.534 6 129654348.45506        38.000    24212034.618 6 100842269.26606        37.250    24212034.801 6 100842268.23806        37.750
R12  22080830.048 8 117951817.03008        49.000    22080833.380 7  91740304.40507        44.000    22080833.606 7  91740306.38707        43.500    22080918.048 6  88533969.05616        37.250
R13  20662957.363 6 110339033.92706        39.500    20662959.512 7  85819253.06507        42.500    20662960.196 6  85819255.03706        39.250
R14  22848737.965 7 121796635.38807        46.000    22848741.336 6  94730719.05306        41.750    22848741.209 7  94730668.04607        42.000
R21  23142915.471 7 123842423.27407        47.250    23142916.723 6  96321893.61906        40.750    23142916.425 6  96321894.62206        40.750    23142899.194 6  92792010.57106        40.750
R22  19678022.031 8 105042626.59408        50.250    19678024.312 8  81699848.69908        49.750    19678024.573 8  81699855.69108        49.250
R23  21097436.414 8 112857069.35708        50.750    21097439.706 6  87777743.33706        40.500    21097439.418 6  87777741.32206        40.750
> 2020 01 13 00 01 30.0000000  0 32
E02  27435877.582 7 144176510.25407        42.500    27435879.013 6 107664285.16906        39.500    27435876.248 6 110472902.06706        40.750    27435876.912 7 109068600.12507        43.250
E11  24035744.678 7 126308712.84707        46.250    24035744.196 7  94321446.63707        46.750    24035740.780 7  96781992.93907        46.250    24035742.212 8  95551718.29308        49.500
E12  21851213.572 7 114828921.12607        44.750    21851213.711 8  85748878.10608        48.500    21851210.842 8  87985799.25608        49.000    21851211.936 8  86867344.68608        51.750
E14  22866876.876 7 120166257.70707        43.250    22866879.761 7  89734560.94907        44.000    22866876.356 7  92075435.63907        44.000    22866877.698 7  90905001.79807        47.000
E19  26846909.313 6 141081469.77006        40.000    26846911.633 6 105353063.66606        38.000    26846908.496 6 108101388.48406        39.250    26846909.587 6 106727223.07806        41.750
E20  21794737.721 6 114532123.89406        36.250
E24  23637951.556 7 124218274.09307        45.750    23637966.660 7  92760458.02307        46.000    23637963.093 7  95180273.47207        46.500    23637964.221 8  93970359.25008        49.250
E25  24785506.576 8 130248714.31808        48.000    24785510.238 8  97263659.77108        49.500    24785506.826 8  99800958.22608        49.750    24785507.991 8  98532308.50208        52.500
E33  27327895.704 6 143609080.16806        40.500    27327898.247 7 107240564.44707        42.500    27327894.608 7 110038128.25507        42.000    27327896.194 7 108639354.35807        45.250
E36  28306160.630 6 148749875.08306        41.250    28306165.434 6 111079471.40006        37.250    28306162.039 6 113977185.25306        36.750    28306163.663 6 112528330.33806        40.000
G07  24342744.281 7 127921979.64507        44.500    24342744.031 4        27.250    24342742.105 4  99679457.30704        27.250    24342742.756 6  99679455.31006        36.250
G08  22023320.374 8 115733348.97008        49.000    22023319.994 6        40.250    22023321.653 6  90181839.33406        40.250    22023321.975 7  90181828.34107        45.000    22023321.381 8  86424265.56108        50.000
G10  21659151.108 8 113819609.08308        49.750    21659151.068 7        42.500    21659152.109 7  88690616.18507        42.500    21659151.825 7  88690611.18007        46.500    21659151.249 8  84995169.86608        51.250
G11  25547528.085 5 134253157.69705        35.500    25547527.647 2        15.500    25547527.106 2 104612849.75402        15.500
G13  25312569.242 6 133018444.52006        36.750    25312568.813 2        14.500    25312566.431 2 103650723.43402        14.500
G15  24595138.704 7 129248336.44007        43.750    24595138.753 4        25.500    24595136.463 4 100712983.28004        25.500    24595136.393 5 100712978.28205        35.250
G16  21376641.817 7 112335011.46807        47.250    21376641.267 6        38.250    21376640.031 6  87533768.21906        38.250
G18  24451624.121 6 128494151.42306        41.500    24451623.840 4        24.000    24451623.557 4 100125312.19004        24.000
G20  21147954.567 8 111133265.08608        48.250    21147953.696 6        39.000    21147952.383 6  86597342.37106        39.000
G21  23163198.390 7 121723437.16107        46.000    23163197.577 5        34.500    23163195.978 5  94849423.21905        34.500
G26  23031577.345 7 121031755.32007        43.500    23031577.046 5        32.750    23031579.483 5  94310473.03905        32.750    23031579.229 6  94310470.04306        41.750    23031578.884 7  90380857.24107        45.500
G27  20329946.569 8 106834611.69808        50.500    20329946.265 7        45.250    20329947.056 7  83247757.90107        45.250    20329947.091 8  83247760.90508        48.750    20329947.741 8  79779108.82008        53.750
G30  25314960.830 6 133031017.29006        38.500    25314960.374 3        20.250    25314960.469 3 103660532.37603        20.250    25314961.934 5 103660533.40905        34.250    25314961.570 6  99341345.13506        40.500
R06  21564528.652 7 115072482.98407        44.750
R07  21644925.308 8 115866973.95508        48.750    21644926.888 7  90118779.03407        45.250    21644926.692 7  90118783.04107        44.750
R08  24187179.504 6 129521247.29106        38.750    24187179.462 6 100738746.10306        37.750    24187179.352 6 100738745.09206        38.250
R12  22103523.908 8 118073047.09008        48.250    22103527.826 7  91834594.43007        43.750    22103528.258 7  91834596.43707        43.500    22103589.698 5  88624870.87215        35.750
R13  20666615.947 6 110358570.53006        39.000    20666618.104 7  85834448.18107        42.500    20666618.163 6  85834450.16906        39.500
R14  22831380.161 7 121704107.27607        46.500    22831383.942 7  94658752.74807        43.000    22831383.644 7  94658701.74807        43.000
R21  23161701.412 7 123942954.57507        46.750    23161703.610 6  96400084.58406        41.000    23161703.154 6  96400085.58006        40.500    23161686.439 6  92867336.15306        41.000
R22  19684005.414 8 105074563.91508        51.000    19684007.133 8  81724688.82008        49.500    19684007.235 8  81724695.82608        49.000
R23  21082887.554 8 112779244.44608        50.750    21082891.041 6  87717212.85806        40.250    21082890.263 6  87717210.84006        41.000
> 2020 01 13 00 02  0.0000000  0 32
E02  27421960.327 6 144103374.74706        41.250    27421961.422 6 107609670.97506        38.500    27421959.828 7 110416863.20207        43.000    27421960.145 7 109013273.59207        44.000
E11  24027191.692 7 126263765.91907        46.000    24027191.092 7  94287882.39007        46.750    24027187.681 7  96747553.10307        46.500    24027189.080 8  95517716.25108        49.750
E12  21857027.844 7 114859475.49307        44.500    21857027.957 8  85771694.67908        48.500    21857025.177 8  88009211.03908        49.500    21857026.239 8  86890458.86408        52.000
E14  22904704.360 7 120365040.86107        43.250    22904706.966 7  89883002.86907        43.750    22904703.574 7  92227749.96007        44.000    22904704.874 7  91055379.91907        46.750
E19  26834608.773 6 141016830.00306        40.000    26834611.006 6 105304793.72506        37.750    26834608.023 6 108051859.33506        39.250    26834609.025 6 106678323.53106        41.750
E20  21793940.018 6 114527933.27006        36.000
E24  23653068.007 7 124297712.42107        45.250    23653083.184 7  92819778.85007        46.000    23653079.818 7  95241141.80307        46.750    23653080.845 8  94030453.82908        49.500
E25  24785534.926 7 130248864.03807        47.750    24785538.702 8  97263771.57108        49.500    24785535.390 8  99801072.94008        50.250    24785536.507 8  98532421.75908        52.750
E33  27342272.832 6 143684632.05906        40.500    27342275.154 7 107296983.05507        42.500    27342271.953 7 110096018.65707        42.750    27342273.176 7 108696508.86007        45.750
E36  28291375.720 6 148672180.69506        40.250    28291380.764 6 111021452.86406        37.000    28291377.370 6 113917653.16206        37.000    28291378.802 6 112469555.01906        40.000
G07  24342812.635 7 127922337.99407        44.750    24342812.416 4        26.750    24342810.646 4  99679736.52304        26.750    24342810.273 6  99679734.51806        36.250
G08  22008854.100 8 115657327.93408        49.250    22008853.716 6        40.000    22008855.167 6  90122602.16606        40.000    22008855.520 7  90122591.17307        44.750    22008854.971 8  86367496.61008        50.250
G10  21648156.232 8 113761830.57708        50.250    21648156.192 7        42.500    21648157.243 7  88645593.99607        42.500    21648157.113 7  88645589.00407        46.750    21648156.247 8  84952023.60508        51.250
G11  25527029.740 6 134145440.12106        36.500    25527029.226 2        15.750    25527029.175 2 104528913.93002        15.750
G13  25314540.832 6 133028803.83106        37.250    25314540.367 2        15.250    25314537.715 2 103658795.62302        15.250
G15  24594417.346 7 129244545.78707        43.750    24594417.390 4        26.250    24594415.133 4 100710029.54004        26.250    24594415.367 6 100710024.55806        36.000
G16  21390668.415 7 112408720.71507        47.250    21390667.865 6        38.250    21390666.513 6  87591203.99706        38.250
G18  24430281.443 6 128381996.26406        41.750    24430281.171 4        24.000    24430281.334 4 100037918.57304        24.000
G20  21149857.862 8 111143267.63008        48.750    21149856.999 6        39.000    21149855.752 6  86605136.56606        39.000
G21  23177878.496 7 121800582.03307        46.250    23177877.687 5        34.250    23177875.863 5  94909536.10605        34.250
G26  23051488.076 7 121136388.25307        44.250    23051487.817 5        32.750    23051490.536 5  94392005.17605        32.750    23051490.501 6  94392002.18606        41.750    23051489.776 7  90458992.22407        45.250
G27  20326121.807 8 106814511.15008        50.750    20326121.503 7        45.250    20326121.936 7  83232095.13307        45.250    20326122.134 8  83232098.14308        48.750    20326122.713 8  79764098.67008        53.750
G30  25306460.634 6 132986347.67406        39.250    25306460.152 3        19.500    25306460.153 3 103625724.87203        19.500    25306460.505 5 103625725.89205        34.000    25306460.749 6  99307987.92906        39.500
R06  21568900.592 7 115095811.03007        44.750
R07  21628504.832 8 115779072.88708        49.500    21628506.258 7  90050411.55607        45.250    21628505.757 7  90050415.54407        44.750
R08  24162317.204 6 129388115.28906        39.000    24162318.300 6 100635198.95606        38.500    24162318.067 6 100635197.94506        38.750
R12  22126279.415 8 118194601.99708        48.000    22126283.291 7  91929137.12407        43.500    22126283.277 7  91929139.12207        44.000    22126367.798 6  88716201.14316        36.750
R13  20670430.604 6 110378942.05806        39.000    20670433.226 7  85850292.69107        43.000    20670433.369 6  85850294.68906        39.750
R14  22814125.545 8 121612127.92308        48.000    22814128.518 7  94587213.25607        42.500    22814128.461 7  94587162.25107        42.750
R21  23180501.762 7 124043556.18807        47.250    23180503.532 6  96478330.24206        40.750    23180503.120 6  96478331.25106        40.750    23180485.941 6  92942714.41306        40.500
R22  19690057.384 8 105106870.27708        51.000    19690059.126 8  81749815.99008        49.250    19690059.371 8  81749822.99508        49.000
R23  21068385.599 8 112701670.75408        50.000    21068389.010 6  87656877.78006        40.250    21068388.533 6  87656875.77506        40.500
> 2020 01 13 00 02 30.0000000  0 32
E02  27408091.492 6 144030495.41706        40.250    27408093.759 6 107555248.07206        40.000    27408091.299 7 110361020.60407        42.750    27408092.190 7 108958140.84207        44.500
E11  24018675.781 7 126219015.07007        46.000    24018675.334 7  94254464.55407        46.750    24018671.859 7  96713263.50507        46.750    24018673.282 8  95483862.53408        49.750
E12  21862879.840 7 114890227.62707        44.500    21862879.956 8  85794658.93208        48.250    21862877.234 8  88032774.36008        49.500    21862878.162 8  86913722.65108        52.000
E14  22942558.914 7 120563967.82507        42.250    22942561.551 7  90031552.19807        43.250    22942558.135 7  92380174.48607        44.000    22942559.444 7  91205866.84507        46.500
E19  26822359.345 6 140952459.45206        40.250    26822361.672 6 105256724.80306        37.750    26822358.623 6 108002536.43506        39.500    26822359.744 6 106629627.62506        41.500
E20  21793225.585 5 114524179.59905        35.250
E24  23668233.232 7 124377405.34707        44.500    23668248.278 7  92879289.80807        45.500    23668244.928 7  95302205.22307        47.000    23668245.905 8  94090741.01908        49.250
E25  24785649.729 7 130249466.93607        47.750    24785653.436 8  97264221.77208        49.250    24785650.123 8  99801534.88908        50.000    24785651.240 8  98532877.83408        52.750
E33  27356654.631 6 143760208.12806        40.750    27356656.916 7 107353419.70807        42.500    27356653.460 7 110153927.56407        42.500    27356654.791 7 108753681.64107        45.500
E36  28276599.082 6 148594528.10706        39.750    28276604.087 6 110963465.50106        36.750    28276600.687 6 113858153.10606        37.500    28276601.976 6 112410811.31106        40.000
G07  24342984.149 7 127923238.13807        45.000    24342983.939 4        26.750    24342981.802 4  99680437.91604        26.750    24342981.862 6  99680435.91106        36.000
G08  21994430.366 8 115581530.13308        49.000    21994429.986 6        40.000    21994431.188 6  90063538.94906        40.000    21994431.860 7  90063527.95907        44.250    21994431.076 8  86310894.36408        50.250
G10  21637256.157 8 113704550.19208        49.500    21637256.117 7        42.250    21637257.117 7  88600959.95207        42.250    21637256.673 7  88600954.95807        46.250    21637256.179 8  84909249.31708        51.250
G11  25506532.453 5 134037727.53905        34.500    25506531.957 2        14.250    25506532.330 2 104444982.02002        14.250
G13  25316618.762 6 133039726.51106        37.500    25316618.360 2        14.000    25316616.295 2 103667306.78602        14.000
G15  24593805.296 7 129241331.11207        43.000    24593805.322 4        24.500    24593803.522 4 100707524.61004        24.500    24593803.889 5 100707519.60605        35.250
G16  21404780.428 7 112482880.48007        47.000    21404779.878 6        38.000    21404778.731 6  87648990.81706        38.000
G18  24408957.046 6 128269938.64806        41.500    24408956.747 4        24.250    24408957.007 4  99950600.94004        24.250
G20  21151874.205 8 111153862.74208        48.250    21151873.334 6        39.000    21151871.863 6  86613392.50706        39.000
G21  23192579.247 7 121877834.85707        46.250    23192578.438 5        34.500    23192576.729 5  94969733.11305        34.500
G26  23071439.737 7 121241233.53907        45.000    23071439.487 5        32.750    23071442.022 5  94473702.78805        32.750    23071441.503 7  94473699.78007        42.500    23071441.286 7  90537285.75707        45.000
G27  20322373.969 8 106794816.70708        50.250    20322373.670 7        45.000    20322374.090 7  83216748.81307        45.000    20322374.570 8  83216751.81708        48.250    20322374.940 8  79749391.77908        53.750
G30  25298052.643 6 132942166.07706        39.250    25298052.196 3        21.500    25298052.866 3 103591297.65403        21.500    25298053.719 6 103591298.64906        36.000    25298053.754 6  99274995.16306        40.500
R06  21573423.524 7 115119948.34907        45.500
R07  21612190.898 8 115691741.52908        49.500    21612191.874 7  89982487.17807        45.250    21612191.830 7  89982491.17607        45.000
R08  24137450.428 6 129254956.12906        38.500    24137451.415 6 100531630.69806        38.250    24137451.915 6 100531629.67406        38.750
R12  22149094.926 8 118316477.44808        48.250    22149098.520 7  92023929.13307        43.500    22149098.334 7  92023931.12707        43.500
R13  20674402.578 6 110400148.45006        39.250    20674404.599 7  85866786.50507        43.250    20674404.374 6  85866788.51206        39.750
R14  22796973.033 7 121520701.31607        45.250    22796976.362 6  94516103.65406        41.250    22796976.383 6  94516052.65406        41.500
R21  23199314.425 7 124144227.47307        46.750    23199316.136 6  96556630.11006        40.750    23199315.904 6  96556631.09506        40.000    23199298.710 6  93018144.90006        40.250
R22  19696178.297 8 105139544.83608        51.000    19696180.053 8  81775229.53308        49.250    19696180.510 8  81775236.53708        48.750
R23  21053931.355 8 112624348.99708        50.500    21053934.982 6  87596738.64306        40.500    21053934.699 6  87596736.64606        41.000
> 2020 01 13 00 03  0.0000000  0 33
E02  27394272.289 6 143957873.91406        41.250    27394274.822 6 107501017.75106        41.500    27394271.995 6 110305375.58006        41.750    27394272.940 7 108903203.17607        44.500
E04  28938119.602 6 152070843.47616        36.750    28938122.276 5 113559407.57815        35.000    28938118.995 6 116521814.34216        36.250    28938120.147 6 115040616.46816        38.750
E11  24010197.312 7 126174460.40007        46.000    24010196.921 7  94221193.22107        46.750    24010193.378 7  96679124.21507        46.750    24010194.795 8  95450157.22108        49.750
E12  21868769.276 7 114921176.86907        44.750    21868769.332 8  85817770.38208        48.250    21868766.618 8  88056488.72008        49.500    21868767.598 8  86937135.55408        51.750
E14  22980440.219 7 120763034.13307        42.250    22980442.671 7  90180205.55907        43.250    22980439.271 7  92532705.76407        44.000    22980440.500 7  91356459.16707        46.500
E19  26810161.900 6 140888359.84906        40.250    26810163.892 6 105208858.23206        37.750    26810161.051 6 107953421.15606        39.750    26810161.963 6 106581136.69706        41.750
E20  21792594.367 5 114520863.02505        35.500
E24  23683446.459 7 124457351.22107        45.000    23683461.480 7  92938989.64607        45.750    23683458.088 7  95363462.44507        46.750    23683459.090 8  94151219.54808        49.250
E25  24785850.648 8 130250523.11408        48.000    24785854.493 8  97265010.46608        49.000    24785851.095 8  99802344.15708        50.000    24785852.239 8  98533676.81508        52.500
E33  27371040.888 6 143835807.92006        41.000    27371043.124 7 107409874.06907        42.500    27371039.474 7 110211854.64407        42.500    27371040.962 7 108810872.36307        45.500
E36  28261830.082 6 148516917.48806        40.000    28261835.390 6 110905509.49206        37.250    28261831.553 6 113798685.20106        37.250    28261833.351 6 112352099.35306        40.250
G07  24343258.516 7 127924679.83307        45.250    24343258.306 4        26.250    24343255.809 4  99681561.30404        26.250    24343256.340 5  99681559.31305        35.500
G08  21980049.231 8 115505956.92108        49.000    21980048.842 6        40.250    21980050.191 6  90004650.73406        40.250    21980050.338 7  90004639.74707        45.000    21980049.980 8  86254459.83008        50.250
G10  21626451.153 8 113647769.73608        49.750    21626451.118 7        42.500    21626452.067 7  88556715.45907        42.500    21626452.004 7  88556710.45907        46.750    21626451.195 8  84866848.34908        51.250
G11  25486036.749 5 133930020.94905        34.500    25486036.244 2        13.750    25486036.022 2 104361054.76402        13.750
G13  25318804.595 6 133051212.21206        36.500    25318804.242 2        13.750    25318802.199 2 103676256.67302        13.750
G15  24593303.325 7 129238692.86307        43.750    24593303.342 4        24.750    24593301.399 4 100705468.85304        24.750    24593302.067 5 100705463.83605        35.250
G16  21418977.957 7 112557488.76407        47.500    21418977.416 6        38.000    21418976.248 6  87707127.14706        38.000
G18  24387652.788 6 128157979.71206        40.750    24387652.507 4        25.000    24387651.907 4  99863360.23704        25.000
G20  21154002.829 8 111165049.73308        48.500    21154001.958 6        39.250    21154000.727 6  86622109.64806        39.250
G21  23207300.379 7 121955194.91007        45.750    23207299.575 5        34.000    23207297.869 5  95030013.67005        34.000
G26  23091430.774 7 121346288.60407        45.250    23091430.453 5        33.000    23091433.372 5  94555563.86805        33.000    23091432.992 6  94555560.86606        41.250    23091432.548 7  90615735.97007        45.000
G27  20318703.665 8 106775529.13608        50.500    20318703.370 7        45.250    20318703.688 7  83201719.53707        45.250    20318704.117 8  83201722.53808        48.250    20318704.588 8  79734988.72408        53.750
G30  25289738.188 6 132898473.89206        39.500    25289737.728 3        21.250    25289738.881 3 103557251.78703        21.250    25289739.472 5 103557252.80505        34.750    25289739.184 6  99242367.88006        41.250
R06  21578098.311 7 115144893.66807        45.250
R07  21595983.554 8 115604983.91608        49.750    21595984.957 7  89915009.04807        45.250    21595984.632 7  89915013.03807        45.000
R08  24112579.934 6 129121773.61706        38.000    24112580.555 6 100428044.30206        38.250    24112579.949 6 100428043.29306        38.500
R12  22171969.718 8 118438668.85408        48.750    22171972.851 7  92118966.86707        43.250    22171972.733 7  92118968.87207        43.500
R13  20678530.173 6 110422188.33106        39.250    20678532.018 7  85883928.62407        43.000    20678531.386 6  85883930.63206        39.750
R14  22779926.767 7 121429830.84807        47.250    22779929.343 6  94445426.61006        41.750    22779929.386 6  94445375.60906        41.750
R21  23218139.835 7 124244967.50907        46.500    23218141.595 6  96634983.43006        40.000    23218141.943 6  96634984.45106        40.000    23218124.232 6  93093626.89506        40.000
R22  19702368.230 8 105172586.75208        50.750    19702369.923 8  81800928.80508        49.250    19702370.136 8  81800935.80508        48.750
R23  21039524.102 8 112547279.97508        50.500    21039527.378 6  87536796.08906        40.250    21039527.026 6  87536794.07006        40.500
> 2020 01 13 00 03 30.0000000  0 33
E02  27380503.837 6 143885518.28506        41.750    27380505.988 7 107446985.94507        42.000    27380501.843 6 110249934.20406        39.500    27380503.598 7 108848466.58907        43.750
E04  28921374.672 6 151982847.77806        36.750    28921377.248 6 113493696.53006        37.250    28921373.950 6 116454389.09706        38.250    28921375.102 6 114974048.31606        40.750
E11  24001757.307 7 126130108.06107        45.500    24001756.872 7  94188072.98807        46.750    24001753.439 7  96645139.97707        47.000    24001754.822 8  95416604.98808        50.000
E12  21874697.401 7 114952328.82707        44.250    21874697.367 8  85841033.20208        48.250    21874694.698 8  88080358.39408        49.500    21874695.619 8  86960701.80308        52.000
E14  23018347.952 7 120962241.38607        42.250    23018350.430 7  90328964.18107        43.250    23018347.139 7  92685345.06007        43.500    23018348.407 7  91507158.12807        46.250
E19  26798016.816 6 140824539.26006        40.250    26798019.371 6 105161200.01406        37.500    26798016.280 6 107904519.67906        39.500    26798017.295 6 106532856.84706        41.500
E20  21792047.703 5 114517990.04505        35.000
E24  23698708.759 7 124537554.43707        45.250    23698723.671 7  92998881.65907        45.750    23698720.211 7  95424916.86107        46.500    23698721.234 8  94211892.76508        49.000
E25  24786138.999 7 130252038.88807        47.500    24786142.907 8  97266142.37108        49.250    24786139.576 8  99803505.59008        50.000    24786140.677 8  98534823.48408        52.500
E33  27385432.416 6 143911437.11706        40.750    27385435.077 7 107466350.38407        42.750    27385431.192 7 110269804.26707        42.250    27385432.754 7 108868085.32907        45.500
E36  28247070.527 6 148439355.28606        40.250    28247075.530 6 110847589.63206        37.250    28247072.243 6 113739254.39906        38.250    28247073.652 6 112293424.02206        40.750
G07  24343636.863 7 127926668.97407        44.500    24343636.640 4        27.000    24343634.341 4  99683111.27604        27.000    24343634.224 5  99683109.27105        35.000
G08  21965712.192 8 115430615.74108        49.500    21965711.803 6        40.000    21965713.373 6  89945943.32806        40.000    21965713.562 7  89945932.33907        44.750    21965712.971 8  86198198.56708        50.000
G10  21615742.778 8 113591497.22108        49.750    21615742.747 7        42.500    21615743.788 7  88512866.76607        42.500    21615743.628 7  88512861.77107        46.750    21615742.874 8  84824826.69408        51.250
G11  25465543.124 5 133822327.05505        34.750    25465542.700 2        14.250    25465542.298 2 104277137.40302        14.250
G13  25321098.188 6 133063266.63906        38.000    25321097.880 2        14.250    25321096.119 2 103685649.73802        14.250
G15  24592912.276 7 129236637.58707        43.500    24592912.316 4        25.250    24592910.463 4 100703867.33704        25.250    24592910.181 5 100703862.33705        35.750
G16  21433261.515 7 112632549.61107        47.500    21433260.961 6        38.000    21433259.769 6  87765616.13106        38.000
G18  24366368.001 6 128046127.04806        40.250    24366367.747 4        24.250    24366367.212 4  99776202.31204        24.250
G20  21156245.679 8 111176834.33808        48.500    21156244.808 6        39.000    21156243.232 6  86631292.46706        39.000
G21  23222042.507 7 122032666.98207        45.250    23222041.707 5        33.750    23222040.170 5  95090381.51505        33.750
G26  23111462.874 7 121451557.28107        44.750    23111462.539 5        33.000    23111465.316 5  94637591.39405        33.000    23111465.000 7  94637588.39807        42.000    23111464.478 7  90694345.68807        45.000
G27  20315112.145 8 106756655.40008        50.750    20315111.846 7        45.000    20315112.072 7  83187012.72707        45.000    20315112.572 8  83187015.73108        48.250    20315113.028 8  79720894.70008        53.750
G30  25281518.891 6 132855278.78306        39.750    25281518.418 3        21.750    25281519.234 3 103523593.26503        21.750    25281519.344 6 103523594.27706        36.000    25281519.819 7  99210111.77607        42.250
R06  21582926.087 7 115170652.38207        45.000
R07  21579885.539 8 115518810.32508        50.000    21579886.887 7  89847985.15807        45.250    21579886.813 7  89847989.16207        44.750
R08  24087706.383 6 128988578.23206        37.750    24087707.284 6 100324447.84406        38.500    24087707.667 6 100324446.84606        38.750
R12  22194903.429 8 118561178.02208        49.000    22194906.841 7  92214251.78207        43.250    22194906.714 7  92214253.77807        43.000
R13  20682813.522 6 110445066.45106        39.250    20682816.249 7  85901722.70007        43.000    20682815.959 6  85901724.70506        39.750
R14  22762986.288 7 121339526.53307        46.250    22762989.294 7  94375189.91707        43.500    22762988.636 7  94375138.91407        43.000
R21  23236979.693 7 124345781.55307        46.000    23236980.908 6  96713394.31306        39.750    23236980.652 6  96713395.30806        39.250    23236963.911 6  93169164.34506        39.750
R22  19708627.950 8 105206001.37908        51.000    19708629.649 8  81826917.95708        49.250    19708629.906 8  81826924.95708        48.750
R23  21025165.000 8 112470470.71708        50.500    21025169.271 6  87477055.55806        40.750    21025168.428 6  87477053.56206        41.250
> 2020 01 13 00 04  0.0000000  0 33
E02  27366783.936 6 143813419.90506        41.000    27366785.333 6 107393146.26706        40.000    27366781.819 6 110194689.97606        40.250    27366782.992 7 108793924.62807        43.000
E04  28904609.530 5 151894751.44105        31.250    28904612.970 6 113427910.33206        36.250    28904609.686 6 116386886.73606        36.250    28904610.989 6 114907404.03906        39.250
E11  23993353.975 7 126085947.98907        46.000    23993353.462 7  94155096.32207        46.500    23993350.066 7  96611303.04307        47.000    23993351.409 8  95383198.18908        49.750
E12  21880661.848 7 114983672.65907        44.750    21880661.896 8  85864439.31208        48.000    21880659.131 8  88104375.09608        49.250    21880660.146 8  86984413.20908        51.500
E14  23056279.923 7 121161574.97007        42.500    23056282.476 7  90477817.14707        43.250    23056278.991 7  92838081.13807        43.250    23056280.323 7  91657952.64807        46.250
E19  26785923.933 6 140760989.29306        40.250    26785925.886 6 105113743.88006        37.750    26785922.997 6 107855825.55706        39.500    26785924.145 6 106484781.72206        41.750
E20  21791583.416 5 114515550.52205        35.500
E24  23714017.543 7 124618003.15607        45.000    23714032.570 7  93058957.00607        46.000    23714029.014 7  95486559.37907        46.500    23714030.133 8  94272751.69608        49.250
E25  24786512.995 7 130254004.22007        47.500    24786516.922 8  97267609.97708        48.750    24786513.505 8  99805011.48308        50.000    24786514.688 8  98536310.23308        52.250
E33  27399827.756 6 143987085.09106        40.750    27399830.438 7 107522840.73807        42.500    27399826.550 7 110327768.28407        42.250    27399828.221 7 108925312.51407        45.250
E36  28232318.366 6 148361831.49706        39.750    28232323.136 6 110789698.46106        37.500    28232320.160 6 113679853.05306        38.000    28232321.537 6 112234777.76306        40.750
G07  24344117.573 7 127929194.46907        44.250    24344117.341 4        26.750    24344114.965 4  99685079.17504        26.750    24344116.036 5  99685077.17405        35.250
G08  21951417.663 8 115355497.74108        49.750    21951417.274 6        40.250    21951418.915 6  89887409.82406        40.250    21951418.967 7  89887398.83907        45.250    21951418.581 8  86142103.95908        50.000
G10  21605129.515 8 113535724.26508        50.000    21605129.480 7        42.500    21605130.602 7  88469407.34207        42.500    21605130.057 7  88469402.34307        46.750    21605129.567 8  84783178.08708        51.250
G11  25445051.373 6 133714636.79106        36.000    25445051.002 2        14.000    25445049.331 2 104193222.84302        14.000
G13  25323498.963 6 133075879.43706        37.750    25323498.650 2        14.750    25323496.213 2 103695477.89702        14.750
G15  24592630.031 7 129235156.05107        43.750    24592630.066 4        24.500    24592628.362 4 100702712.91004        24.500    24592628.492 5 100702707.91105        34.500
G16  21447629.193 7 112708051.35507        47.750    21447628.635 6        38.000    21447627.231 6  87824448.68606        38.000
G18  24345101.684 6 127934371.87506        40.000    24345101.470 4        24.250    24345100.913 4  99689120.37704        24.250
G20  21158599.642 8 111189205.51508        48.750    21158598.771 6        39.000    21158597.331 6  86640932.34906        39.000
G21  23236803.606 7 122110239.10907        45.250    23236802.802 5        33.500    23236801.671 5  95150827.32805        33.500
G26  23131533.054 7 121557026.82607        45.250    23131532.701 5        33.000    23131535.523 5  94719775.44205        33.000    23131535.152 6  94719772.45106        41.000    23131534.651 7  90773105.40807        44.750
G27  20311597.693 8 106738186.07308        50.500    20311597.389 7        44.750    20311597.489 7  83172621.04107        44.750    20311598.189 8  83172624.04508        48.250    20311598.438 8  79707102.66308        53.500
G30  25273392.109 6 132812571.89606        38.750    25273391.653 3        21.750    25273392.516 3 103490315.19903        21.750    25273391.849 5 103490316.17805        35.500    25273392.726 6  99178220.28406        41.750
R06  21587902.849 7 115197213.08707        44.500
R07  21563895.439 8 115433213.99808        49.750    21563896.553 7  89781410.25207        45.250    21563896.519 7  89781414.25607        44.750
R08  24062829.338 6 128855363.08106        37.750    24062830.789 6 100220836.05906        39.250    24062830.493 6 100220835.06006        39.750
R12  22217894.297 8 118683990.30508        49.000    22217897.546 7  92309772.41807        42.750    22217897.305 7  92309774.42307        43.000
R13  20687253.430 6 110468771.81406        39.000    20687255.465 7  85920160.19007        43.000    20687255.136 6  85920162.19906        39.750
R14  22746150.085 7 121249781.99607        45.750    22746152.929 7  94305388.61707        42.250    22746153.499 7  94305337.61507        42.250
R21  23255830.646 7 124446658.68407        45.500    23255832.276 6  96791854.24806        40.000    23255832.732 6  96791855.26006        39.500    23255815.668 6  93244749.04106        40.500
R22  19714955.103 8 105239777.69508        51.000    19714957.156 8  81853188.41308        49.250    19714957.399 8  81853195.42508        48.750
R23  21010853.548 8 112393911.43508        50.500    21010857.754 6  87417509.46906        41.500    21010856.838 6  87417507.44806        41.500
> 2020 01 13 00 04 30.0000000  0 33
E02  27353114.861 6 143741591.42806        38.750    27353115.993 6 107339508.11606        37.750    27353114.469 7 110139652.58007        42.250    27353114.834 7 108739586.85007        43.250
E04  28887829.121 5 151806567.20805        35.000    28887832.034 5 113362058.42305        34.750    28887828.773 5 116319316.95305        35.250    28887830.049 6 114840693.19406        38.000
E11  23984989.105 7 126041990.97607        46.000    23984988.712 7  94122271.29007        46.500    23984985.478 7  96577621.71607        47.000    23984986.703 8  95349945.00908        49.750
E12  21886664.773 7 115015218.64107        44.500    21886664.871 7  85887996.37307        47.750    21886662.237 8  88128546.69208        49.250    21886663.139 8  87008277.53708        51.500
E14  23094237.089 7 121361041.30107        43.000    23094239.685 7  90626769.22307        43.250    23094236.326 7  92990918.93307        43.500    23094237.548 7  91808847.58307        46.500
E19  26773884.665 6 140697722.56806        41.000    26773886.844 6 105066499.26306        38.000    26773883.904 6 107807348.47406        39.750    26773884.861 7 106436920.87307        42.000
E20  21791203.928 6 114513555.56706        36.000
E24  23729374.751 7 124698706.49507        45.250    23729389.976 7  93119222.47007        46.250    23729386.313 7  95548397.00507        46.500    23729387.532 8  94333803.24208        49.250
E25  24786974.719 7 130256430.06307        46.750    24786978.488 8  97269421.46508        48.750    24786975.156 8  99806870.22908        50.000    24786976.324 8  98538145.35208        52.250
E33  27414228.779 6 144062762.25206        40.750    27414231.217 7 107579352.88307        42.250    27414227.663 7 110385754.66007        42.250    27414229.216 7 108982561.77607        45.250
E36  28217575.371 6 148284357.20406        38.750    28217580.454 6 110731844.25106        38.250    28217577.500 6 113620489.60706        38.000    28217578.807 6 112176168.93606        41.000
G07  24344702.407 7 127932266.76307        44.000    24344702.171 4        27.000    24344699.933 4  99687473.15504        27.000    24344700.008 6  99687471.16306        36.250
G08  21937168.167 8 115280615.57308        49.250    21937167.770 6        40.250    21937169.338 6  89829060.08706        40.250    21937169.545 7  89829049.09807        44.750    21937168.917 8  86086185.46508        50.250
G10  21594613.751 8 113480463.49908        49.750    21594613.720 7        42.750    21594614.839 7  88426347.02007        42.750    21594614.495 7  88426342.02707        46.750    21594613.770 8  84741911.94708        51.000
G11  25424560.654 6 133606962.03006        36.500    25424560.131 2        14.750    25424559.274 2 104109320.39702        14.750
G13  25326006.744 6 133089061.02606        37.750    25326006.472 2        15.250    25326004.485 2 103705749.24402        15.250
G15  24592459.997 7 129234259.53907        43.500    24592460.037 4        25.000    24592457.720 4 100702014.33704        25.000    24592457.901 5 100702009.34105        35.000
G16  21462082.133 7 112784002.37807        47.750    21462081.557 6        38.250    21462080.275 6  87883631.31406        38.250
G18  24323855.831 6 127822726.20706        39.750    24323855.572 4        24.500    24323855.554 4  99602123.74904        24.500
G20  21161067.495 8 111202173.75008        48.500    21161066.624 6        39.250    21161065.162 6  86651037.47006        39.250
G21  23251586.715 7 122187921.83307        44.500    23251585.906 5        33.250    23251584.278 5  95211359.32005        33.250
G26  23151643.335 7 121662705.73107        45.250    23151643.005 5        33.000    23151645.380 5  94802122.63305        33.000    23151644.812 6  94802119.63406        41.250    23151644.671 7  90852021.45707        44.500
G27  20308162.069 8 106720132.76808        50.250    20308161.770 7        44.750    20308162.125 7  83158553.52407        44.750    20308162.803 8  83158556.52608        48.250    20308162.985 8  79693621.29008        53.500
G30  25265360.415 6 132770365.40706        39.000    25265359.950 3        21.500    25265360.552 3 103457426.99003        21.500    25265360.383 5 103457427.99605        35.250    25265361.188 6  99146702.43906        41.250
R06  21593032.330 7 115224585.37607        44.000
R07  21548015.924 8 115348210.34808        50.250    21548017.320 7  89715296.31807        45.250    21548017.142 7  89715300.32107        45.000
R08  24037952.443 6 128722143.53406        38.000    24037952.899 6 100117220.81506        39.250    24037952.426 6 100117219.79606        38.750
R12  22240942.682 8 118807112.32608        48.250    22240946.122 7  92405533.98507        43.000    22240946.670 7  92405535.98807        43.000
R13  20691848.566 6 110493313.65706        38.500    20691851.314 7  85939248.25307        43.000    20691850.898 6  85939250.25806        40.000
R14  22729422.181 7 121160611.68207        46.750    22729424.155 6  94236033.91106        41.250    22729424.401 6  94235982.90206        41.500
R21  23274696.304 7 124547608.99907        45.500    23274696.983 6  96870371.13706        39.750    23274696.801 6  96870372.13206        39.750    23274680.795 6  93320388.55306        40.000
R22  19721352.413 8 105273925.64808        51.000    19721354.264 8  81879747.94008        49.250    19721354.560 8  81879754.94008        49.000
R23  20996590.339 8 112317614.44908        50.750    20996594.557 6  87358167.37506        41.000    20996593.805 6  87358165.37506        41.250
> 2020 01 13 00 05  0.0000000  0 33
E02  27339496.866 6 143670026.12606        40.500    27339498.688 6 107286066.45006        39.500    27339496.177 7 110084816.85407        42.750    27339497.125 7 108685448.15507        44.250
E04  28871030.218 6 151718287.95306        36.000    28871033.007 5 113296135.59905        35.000    28871030.117 6 116251674.41806        36.000    28871031.075 6 114773910.51706        38.500
E11  23976661.487 7 125998228.71007        45.750    23976661.052 7  94089591.68207        46.750    23976657.778 7  96544089.59607        47.250    23976659.030 8  95316839.14408        50.000
E12  21892704.571 7 115046957.70807        44.500    21892704.661 8  85911697.62008        48.250    21892701.926 8  88152866.23708        49.250    21892702.870 8  87032287.93308        51.750
E14  23132217.072 7 121560627.56607        43.250    23132219.674 7  90775810.89007        43.000    23132216.339 7  93143848.63407        43.250    23132217.596 7  91959833.26907        46.000
E19  26761898.193 6 140634732.53306        40.750    26761899.978 6 105019461.25706        37.500    26761897.303 6 107759083.38606        39.750    26761898.278 6 106389269.32606        41.750
E20  21790907.682 5 114511996.76205        35.000
E24  23744778.838 7 124779654.25607        44.750    23744793.812 7  93179670.47707        45.750    23744790.239 7  95610421.91707        46.250    23744791.444 8  94395039.70108        49.000
E25  24787522.534 7 130259308.05707        47.000    24787526.185 8  97271570.59408        49.250    24787522.866 8  99809075.42408        50.000    24787524.013 8  98540322.51608        52.500
E33  27428633.668 6 144138459.71606        40.750    27428635.903 7 107635880.17107        42.500    27428632.620 7 110443756.59907        42.750    27428633.931 7 109039826.38907        45.750
E36  28202840.917 6 148206924.18806        39.000    28202845.806 6 110674020.84606        38.000    28202842.035 6 113561157.78506        37.750    28202843.765 6 112117591.32206        41.000
G07  24345389.352 7 127935877.13607        44.250    24345389.107 4        26.750    24345386.971 4  99690286.41904        26.750    24345387.644 6  99690284.41406        36.250
G08  21922962.004 8 115205961.80808        49.500    21922961.589 6        40.500    21922963.123 6  89770888.32306        40.500    21922963.466 7  89770877.33307        45.000    21922962.730 8  86030437.52908        50.250
G10  21584194.172 8 113425708.26008        50.000    21584194.146 7        43.000    21584195.275 7  88383680.61407        43.000    21584194.723 7  88383675.61907        46.750    21584194.131 8  84701023.31108        51.000
G11  25404072.114 5 133499295.01005        35.500    25404071.556 2        15.500    25404071.109 2 104025423.96502        15.500
G13  25328621.650 6 133102802.64406        37.750    25328621.422 2        14.750    25328619.373 2 103716457.02002        14.750
G15  24592398.620 7 129233939.58807        42.500    24592398.655 4        24.500    24592396.651 4 100701765.02304        24.500    24592397.468 5 100701759.99005        35.250
G16  21476618.574 8 112860392.36408        48.000    21476617.989 6        38.250    21476616.885 6  87943155.98006        38.250
G18  24302628.752 6 127711182.93506        41.500    24302628.542 4        24.250    24302629.585 4  99515206.92404        24.250
G20  21163647.047 8 111215729.90908        48.250    21163646.171 6        39.250    21163644.903 6  86661600.71606        39.250
G21  23266388.191 7 122265705.14507        45.000    23266387.387 5        33.500    23266386.006 5  95271969.68805        33.500
G26  23171790.814 7 121768583.03707        46.250    23171790.452 5        33.000    23171793.120 5  94884624.42205        33.000    23171793.061 6  94884621.42306        40.500    23171792.390 7  90931085.68607        44.500
G27  20304804.348 8 106702487.79008        50.000    20304804.049 7        45.000    20304804.513 7  83144804.18507        45.000    20304805.038 8  83144807.18308        48.500    20304805.268 8  79680444.84108        53.500
G30  25257422.413 6 132728652.22206        38.250    25257421.940 3        21.250    25257423.315 3 103424923.24703        21.250    25257423.111 5 103424924.21805        35.500    25257423.373 6  99115553.00206        41.250
R06  21598312.319 7 115252759.67007        44.250
R07  21532246.596 8 115263794.62608        50.250    21532247.531 7  89649639.66207        45.500    21532247.700 7  89649643.65607        44.500
R08  24013072.590 6 128588914.75406        38.000    24013073.301 6 100013598.42406        39.750    24013072.843 6 100013597.42006        40.000
R12  22264047.079 8 118930531.13808        48.750    22264050.459 7  92501526.38007        43.000    22264050.635 7  92501528.38107        42.750
R13  20696599.094 6 110518682.30106        38.000    20696602.283 7  85958979.42007        43.500    20696602.005 6  85958981.43206        40.500
R14  22712800.755 7 121072010.76607        46.750    22712803.787 7  94167122.06607        43.000    22712803.977 7  94167071.07507        43.000
R21  23293572.925 7 124648623.16007        45.500    23293574.116 6  96948937.67806        40.000    23293574.512 6  96948938.65806        39.500    23293557.714 6  93396075.95906        40.250
R22  19727817.216 8 105308435.93008        50.500    19727819.233 8  81906589.26908        49.250    19727819.605 8  81906596.27408        49.000
R23  20982374.704 8 112241571.14608        50.500    20982379.000 6  87299022.58406        41.000    20982378.533 6  87299020.58906        41.500
> 2020 01 13 00 05 30.0000000  0 33
E02  27325929.688 7 143598727.87207        42.000    27325931.810 6 107232824.24706        41.250    27325928.653 7 110030185.73807        42.250    27325929.779 7 108631511.49607        44.750
E04  28854214.119 6 151629917.65406        36.250    28854216.636 5 113230144.70205        35.250    28854213.770 6 116183962.01806        37.000    28854214.801 6 114707058.86206        39.000
E11  23968371.239 7 125954663.26407        46.000    23968370.793 7  94057059.06807        46.750    23968367.524 7  96510708.29907        47.000    23968368.803 8  95283882.19208        50.000
E12  21898781.332 7 115078891.36607        44.750    21898781.381 8  85935544.18908        48.000    21898778.655 8  88177334.88408        49.250    21898779.622 8  87056445.53908        51.750
E14  23170219.754 7 121760331.47107        43.000    23170222.125 7  90924940.38907        42.750    23170218.777 7  93296868.46607        43.000    23170220.025 7  92110907.93407        46.000
E19  26749964.665 6 140572023.03206        41.000    26749966.728 6 104972632.75606        37.750    26749963.948 6 107711033.27306        39.750    26749965.016 6 106341830.01706        41.750
E20  21790693.952 5 114510876.43405        35.750
E24  23760229.282 7 124860846.87807        44.500    23760244.252 7  93240301.31907        45.750    23760240.720 7  95672634.43307        46.250    23760241.933 8  94456461.38108        49.000
E25  24788156.537 7 130262640.38907        47.250    24788160.329 8  97274059.01808        49.000    24788157.020 8  99811628.76408        50.000    24788158.161 8  98542843.39608        52.500
E33  27443042.638 6 144214179.12006        41.750    27443044.875 7 107692423.85607        42.250    27443041.577 7 110501775.32007        43.000    27443042.791 7 109097107.59407        45.500
E36  28188113.788 6 148129534.71906        39.250    28188118.922 6 110616230.01706        38.500    28188115.672 6 113501859.35206        37.250    28188117.227 6 112059046.69606        40.750
G07  24346179.172 7 127940026.99407        45.250    24346178.944 4        27.000    24346176.624 4  99693520.07204        27.000    24346176.816 5  99693518.06605        35.750
G08  21908800.071 8 115131540.26608        50.000    21908799.651 6        41.000    21908801.436 6  89712897.51806        41.000    21908801.147 7  89712886.52507        45.000    21908800.635 8  85974863.00408        50.250
G10  21573871.582 8 113371462.40808        49.750    21573871.547 7        43.250    21573872.601 7  88341411.13907        43.250    21573872.188 7  88341406.13507        46.750    21573871.499 8  84660515.07108        51.000
G11  25383586.599 6 133391638.65206        36.250    25383586.058 2        15.250    25383584.840 2 103941535.85602        15.250
G13  25331343.903 6 133117105.83106        37.750    25331343.640 2        15.000    25331341.321 2 103727602.37002        15.000
G15  24592447.926 7 129234198.72307        43.000    24592447.966 4        24.000    24592446.210 4 100701966.96104        24.000    24592445.923 5 100701961.95605        34.500
G16  21491238.633 7 112937221.27107        47.750    21491238.030 6        38.250    21491236.963 6  88003022.67606        38.250
G18  24281422.990 7 127599745.58407        42.250    24281422.758 4        24.250    24281424.015 4  99428372.63204        24.250
G20  21166338.774 8 111229875.50208        48.250    21166337.898 6        39.000    21166336.744 6  86672623.26306        39.000
G21  23281209.388 7 122343589.97707        45.000    23281208.588 5        33.500    23281207.025 5  95332659.15105        33.500
G26  23191976.292 7 121874658.40607        46.250    23191975.917 5        33.000    23191978.543 5  94967280.56205        33.000    23191978.509 6  94967277.56306        40.000    23191977.860 7  91010297.81507        44.500
G27  20301524.973 8 106685254.03808        50.000    20301524.674 7        45.000    20301525.172 7  83131375.27907        45.000    20301525.399 8  83131378.28208        48.500    20301525.804 8  79667575.47408        53.500
G30  25249579.124 6 132687435.83806        40.000    25249578.673 3        20.500    25249579.427 3 103392806.55103        20.500    25249579.227 5 103392807.55405        34.000    25249580.167 6  99084774.51006        41.000
R06  21603742.597 7 115281736.77807        45.000
R07  21516587.953 8 115179973.03708        50.500    21516589.183 7  89584445.10307        45.500    21516589.036 7  89584449.10907        45.250
R08  23988191.328 6 128455682.64306        37.500    23988192.947 6  99909973.46806        39.250    23988193.648 6  99909972.46006        39.250
R12  22287206.292 8 119054244.49608        49.250    22287209.958 7  92597747.89107        43.000    22287210.532 7  92597749.88207        43.250
R13  20701505.479 6 110544878.36906        38.250    20701508.409 7  85979354.09507        43.500    20701507.705 6  85979356.09906        40.250
R14  22696286.474 7 120983985.16707        46.000    22696290.219 7  94098657.73407        42.750    22696290.612 7  94098606.72107        42.500
R21  23312461.831 7 124749702.32607        45.250    23312463.565 6  97027554.76206        39.500    23312463.817 6  97027555.75306        39.750    23312446.622 6  93471812.04106        40.250
R22  19734350.399 8 105343309.99408        51.000    19734352.363 8  81933713.53808        49.250    19734352.512 8  81933720.54008        48.750
R23  20968207.044 8 112165784.78108        50.250    20968211.599 6  87240077.66206        41.250    20968211.002 6  87240075.65306        41.500
> 2020 01 13 00 06  0.0000000  0 33
E02  27312413.375 6 143527700.34306        41.000    27312415.562 7 107179784.22107        42.500    27312411.525 6 109975762.01806        39.500    27312413.437 7 108577779.63507        44.000
E04  28837381.194 5 151541460.08005        35.750    28837384.057 6 113164088.76906        37.000    28837380.773 6 116116182.86406        37.500    28837381.887 6 114640141.32106        40.250
E11  23960119.034 7 125911296.74307        46.000    23960118.362 7  94024674.98907        47.000    23960115.075 7  96477479.42007        47.000    23960116.410 8  95251075.71208        50.000
E12  21904895.262 7 115111021.02807        44.500    21904895.460 8  85959537.12308        48.250    21904892.713 8  88201953.72008        49.250    21904893.698 8  87080751.42508        51.750
E14  23208243.921 7 121960150.66007        43.500    23208246.532 7  91074155.98707        43.000    23208243.174 7  93449976.65707        43.000    23208244.373 7  92262069.82807        46.000
E19  26738085.411 6 140509597.90306        41.250    26738087.756 6 104926016.61506        37.750    26738084.812 6 107663201.05106        39.750    26738085.891 7 106294605.83507        42.000
E20  21790564.668 6 114510196.75806        36.250
E24  23775726.269 7 124942284.59707        45.750    23775741.233 7  93301115.19907        46.000    23775737.866 7  95735034.76507        46.500    23775739.052 8  94518068.48708        49.250
E25  24788877.483 7 130266429.17107        47.750    24788881.312 8  97276888.28508        49.250    24788878.106 8  99814531.84208        49.750    24788879.165 8  98545709.57008        52.500
E33  27457455.922 7 144289922.07307        42.250    27457458.354 7 107748985.13907        42.750    27457454.867 7 110559812.10907        42.750    27457456.128 7 109154406.63007        45.750
E36  28173396.099 6 148052191.11506        38.750    28173401.093 6 110558473.41206        39.000    28173397.319 6 113442596.05206        37.250    28173399.266 6 112000536.74006        41.250
G07  24347071.694 7 127944717.58807        44.500    24347071.480 4        27.000    24347069.097 4  99697175.05904        27.000    24347069.244 5  99697173.06805        35.500
G08  21894683.001 8 115057354.32408        49.250    21894682.586 6        40.500    21894684.081 6  89655090.29106        40.500    21894684.466 7  89655079.30107        44.750    21894683.458 8  85919464.42308        50.000
G10  21563646.684 8 113317729.67708        50.250    21563646.649 7        43.250    21563647.556 7  88299541.49007        43.250    21563647.178 7  88299536.49507        47.000    21563646.468 8  84620389.99808        51.000
G11  25363102.660 5 133283996.19505        35.750    25363102.187 2        16.250    25363101.602 2 103857658.60102        16.250
G13  25334172.514 6 133131972.49306        37.000    25334172.224 2        13.750    25334170.446 2 103739186.77302        13.750
G15  24592608.322 6 129235039.37906        41.500    24592608.375 3        23.250    24592606.022 3 100702622.02703        23.250    24592606.203 5 100702617.00505        35.000
G16  21505942.160 7 113014488.92707        47.500    21505941.534 6        38.250    21505940.480 6  88063231.25206        38.250
G18  24260239.024 6 127488417.34406        41.250    24260238.850 4        24.000    24260238.567 4  99341623.37404        24.000
G20  21169143.064 8 111244611.61508        48.250    21169142.197 6        39.000    21169140.970 6  86684105.95606        39.000
G21  23296049.916 7 122421577.10907        44.750    23296049.125 5        33.750    23296047.423 5  95393428.33705        33.750
G26  23212199.671 7 121980931.42607        45.750    23212199.332 5        33.000    23212201.626 5  95050090.69805        33.000    23212201.159 6  95050087.70406        40.250    23212201.003 7  91089657.53607        44.500
G27  20298324.211 8 106668434.23808        50.250    20298323.903 7        45.000    20298324.555 7  83118268.93607        45.000    20298324.748 8  83118271.93708        48.750    20298325.120 8  79655015.22508        53.500
G30  25241830.937 6 132646719.48306        38.500    25241830.531 3        21.000    25241831.295 3 103361079.52303        21.000    25241831.693 5 103361080.52505        35.000    25241832.176 6  99054369.42806        41.000
R06  21609323.324 7 115311517.36307        45.500
R07  21501041.860 8 115096751.08308        51.000    21501042.675 7  89519716.94507        46.000    21501042.969 7  89519720.94007        45.750
R08  23963312.831 6 128322453.29206        38.000    23963313.581 6  99806350.63006        40.000    23963313.718 6  99806349.61406        39.750
R12  22310420.220 8 119178249.76408        48.750    22310423.787 7  92694196.43807        43.000    22310424.232 7  92694198.43407        42.750
R13  20706566.806 6 110571902.51106        38.250    20706568.712 7  86000372.86507        43.250    20706568.192 6  86000374.88606        40.000
R14  22679882.816 7 120896540.58107        47.000    22679885.588 7  94030645.27107        42.000    22679885.955 7  94030594.26407        42.250
R21  23331362.645 7 124850847.90807        45.750    23331365.140 6  97106223.51406        40.000    23331365.244 6  97106224.50706        39.250    23331348.242 6  93547597.89306        40.250
R22  19740951.719 8 105378548.91808        50.750    19740953.797 8  81961121.59308        49.500    19740953.678 8  81961128.59408        48.750
R23  20954088.422 8 112090258.49608        50.500    20954092.786 6  87181335.01206        41.250    20954092.032 6  87181333.00006        41.750
> 2020 01 13 00 06 30.0000000  0 33
E02  27298948.579 6 143456946.07106        38.250    27298951.320 6 107126948.25706        41.750    27298946.541 6 109921547.68806        39.250    27298948.581 7 108524254.48007        43.500
E04  28820532.072 6 151452917.66706        36.750    28820534.975 6 113097969.42306        36.750    28820531.732 6 116048338.68306        37.250    28820532.912 6 114573159.55806        40.000
E11  23951904.370 7 125868130.02007        46.250    23951903.956 7  93992440.11707        47.000    23951900.689 7  96444403.63707        47.250    23951902.026 8  95218420.38508        50.000
E12  21911046.792 7 115143346.92107        44.250    21911046.918 8  85983676.58108        48.250    21911044.177 8  88226722.91008        49.500    21911045.112 8  87105205.75008        51.750
E14  23246289.677 7 122160081.70607        43.000    23246292.152 7  91223455.10407        43.000    23246288.813 7  93603170.53707        43.250    23246289.980 7  92413316.32507        46.000
E19  26726261.121 6 140447459.74806        41.250    26726263.338 6 104879614.76406        37.750    26726260.328 6 107615588.71806        40.000    26726261.419 7 106247598.74607        42.000
E20  21790519.988 5 114509958.64705        35.250
E24  23791269.984 7 125023966.51507        45.500    23791284.805 7  93362111.43707        46.000    23791281.455 7  95797622.20607        46.500    23791282.623 8  94579860.32708        49.250
E25  24789685.435 7 130270675.25407        47.750    24789689.360 8  97280059.05108        49.250    24789686.094 8  99817785.32908        50.000    24789687.183 8  98548921.69708        52.750
E33  27471873.981 7 144365688.93307        42.500    27471876.270 7 107805564.26507        42.750    27471872.619 7 110617867.21807        42.750    27471874.056 7 109211723.74707        45.750
E36  28158686.894 6 147974894.41106        40.000    28158691.976 6 110500751.81206        38.750    28158688.397 6 113383368.67506        37.500    28158689.940 6 111942062.25406        41.250
G07  24348067.088 7 127949949.37207        44.250    24348066.865 4        26.500    24348064.735 4  99701251.76304        26.500    24348064.702 6  99701249.78306        36.000
G08  21880610.893 8 114983406.08008        50.250    21880610.482 6        40.750    21880611.862 6  89597468.28406        40.750    21880612.543 7  89597457.29907        44.500    21880611.645 8  85864243.33308        50.250
G10  21553519.660 8 113264512.64008        50.250    21553519.629 7        43.250    21553520.695 7  88258073.67907        43.250    21553520.437 7  88258068.67907        46.750    21553519.581 8  84580650.01208        51.250
G11  25342622.567 5 133176368.79505        35.250    25342622.094 2        15.500    25342620.931 2 103773793.07802        15.500
G13  25337108.801 6 133147402.78806        36.250    25337108.524 2        13.250    25337106.746 2 103751210.38602        13.250
G15  24592878.843 7 129236462.77207        42.250    24592878.878 4        24.000    24592876.980 4 100703731.16004        24.000    24592877.862 5 100703726.16505        35.250
G16  21520729.077 8 113092194.42708        48.000    21520728.460 6        37.750    21520727.300 6  88123781.00906        37.750
G18  24239075.366 6 127377200.39006        40.000    24239075.228 4        24.250    24239074.624 4  99254960.81504        24.250
G20  21172059.578 8 111259938.58408        48.250    21172058.711 6        38.750    21172057.586 6  86696049.05206        38.750
G21  23310909.733 7 122499666.80407        45.750    23310908.938 5        33.750    23310907.435 5  95454277.43505        33.750
G26  23232459.915 7 122087400.40507        46.000    23232459.567 5        32.500    23232462.025 5  95133053.54605        32.500    23232461.742 6  95133050.56106        40.250    23232461.359 7  91169163.59707        44.250
G27  20295202.557 8 106652030.00908        50.250    20295202.249 7        45.250    20295203.063 7  83105486.41507        45.250    20295203.081 8  83105489.41408        48.500    20295203.507 8  79642765.30708        53.750
G30  25234178.532 6 132606505.32306        39.000    25234178.126 3        20.750    25234179.213 3 103329743.83503        20.750    25234179.214 6 103329744.82706        36.000    25234179.592 6  99024339.37006        41.250
R06  21615055.161 7 115342101.02507        45.500
R07  21485608.005 8 115014133.83408        50.500    21485609.170 7  89455459.09207        45.750    21485609.205 7  89455463.09207        45.750
R08  23938433.759 6 128189231.61406        37.500    23938434.967 6  99702733.79306        39.750    23938435.272 6  99702732.78206        39.000
R12  22333688.498 8 119302543.78008        49.250    22333692.251 7  92790869.55707        43.500    22333692.336 7  92790871.55907        43.500
R13  20711781.366 6 110599754.29006        38.000    20711784.430 7  86022035.35507        43.000    20711783.629 6  86022037.35006        40.000
R14  22663587.918 7 120809681.45207        45.500    22663591.076 7  93963088.14307        42.500    22663591.124 7  93963037.14907        42.000
R21  23350278.254 7 124952059.93107        46.750    23350278.856 6  97184943.95106        39.750    23350278.712 6  97184944.95006        39.250    23350262.181 6  93623433.52806        40.250
R22  19747621.399 8 105414152.68808        50.750    19747623.638 8  81988813.41708        49.500    19747624.065 8  81988820.42008        49.000
R23  20940018.544 8 112014993.48708        50.250    20940022.817 6  87122795.58206        41.500    20940021.890 6  87122793.58206        41.500
> 2020 01 13 00 07  0.0000000  0 33
E02  27285536.438 6 143386463.02506        40.750    27285537.898 6 107074314.82806        39.500    27285535.243 6 109867541.20806        41.750    27285535.860 7 108470934.52207        43.750
E04  28803666.646 6 151364288.46606        36.250    28803669.430 5 113031785.21405        35.000    28803666.158 6 115980427.92306        36.500    28803667.311 6 114506112.07406        38.750
E11  23943727.318 7 125825159.31307        46.250    23943726.976 7  93960351.61207        46.500    23943723.712 7  96411478.04207        47.000    23943724.975 8  95185913.33408        49.750
E12  21917234.750 7 115175864.69607        44.750    21917234.813 8  86007959.33808        48.000    21917232.117 8  88251639.12408        49.000    21917233.024 8  87129805.23308        51.500
E14  23284355.128 7 122360116.55707        43.250    23284357.554 7  91372831.74007        43.000    23284354.241 7  93756443.97007        42.750    23284355.405 7  92564641.36007        46.000
E19  26714490.995 6 140385606.60806        41.500    26714493.006 6 104833425.72906        37.750    26714490.119 6 107568194.76506        40.000    26714491.178 7 106200807.25407        42.000
E20  21790557.804 5 114510158.51605        35.000
E24  23806858.948 7 125105887.18107        45.750    23806873.850 7  93423285.95207        45.750    23806870.475 7  95860392.58607        46.500    23806871.606 8  94641832.77408        49.000
E25  24790579.905 7 130275374.95507        47.250    24790583.716 8  97283568.56008        49.000    24790580.389 8  99821386.38408        49.750    24790581.512 8  98552476.97708        52.500
E33  27486295.564 7 144441475.56307        42.500    27486297.994 7 107862158.17207        42.500    27486294.294 7 110675937.48307        42.500    27486295.821 7 109269055.83207        45.500
E36  28143986.149 6 147897641.00106        38.250    28143991.357 6 110443062.54306        38.750    28143987.487 6 113324174.46306        36.000    28143989.056 6 111883620.51906        40.500
G07  24349164.987 7 127955717.91207        44.500    24349164.759 4        26.000    24349162.738 4  99705746.73004        26.000    24349162.228 5  99705744.72005        35.250
G08  21866583.924 8 114909693.33008        49.500    21866583.513 6        40.250    21866584.624 6  89540029.78306        40.250    21866585.257 7  89540018.79507        44.500    21866584.497 8  85809198.10408        50.000
G10  21543490.377 8 113211809.23508        50.750    21543490.351 7        43.750    21543491.579 7  88217006.10507        43.750    21543491.182 7  88217001.10707        47.250    21543490.368 8  84541293.58708        51.000
G11  25322143.187 5 133068753.75105        34.500    25322142.776 2        15.000    25322142.608 2 103689937.16902        15.000
G13  25340151.675 6 133163392.43906        38.250    25340151.380 2        16.000    25340149.698 2 103763669.86802        16.000
G15  24593259.722 6 129238465.62806        41.250    24593259.771 3        22.750    24593258.203 3 100705291.87103        22.750    24593258.034 5 100705286.85505        35.000
G16  21535598.166 7 113170331.86007        47.750    21535597.545 6        38.000    21535596.339 6  88184667.32606        38.000
G18  24217931.142 7 127266092.11407        42.000    24217930.968 4        24.250    24217931.053 4  99168382.95504        24.250
G20  21175087.855 8 111275852.36508        48.250    21175086.984 6        38.750    21175085.823 6  86708449.40506        38.750
G21  23325788.296 7 122577853.32707        44.750    23325787.456 5        33.500    23325785.761 5  95515201.99205        33.500
G26  23252756.000 7 122194059.17707        45.250    23252755.683 5        32.250    23252758.599 5  95216164.27205        32.250    23252758.444 6  95216161.28006        40.750    23252757.938 7  91248811.36807        44.750
G27  20292159.519 8 106636038.28708        50.750    20292159.211 7        45.500    20292160.079 7  83093025.32507        45.500    20292160.045 8  83093028.32608        49.250    20292160.412 8  79630823.42708        53.750
G30  25226621.082 6 132566790.84106        38.000    25226620.658 3        21.250    25226621.638 3 103298797.45703        21.250    25226621.538 6 103298798.45206        36.500    25226622.359 6  98994682.44106        41.750
R06  21620936.218 7 115373482.59107        45.250
R07  21470287.018 8 114932121.38808        50.500    21470288.648 7  89391671.66207        46.000    21470288.533 7  89391675.65407        45.500
R08  23913555.062 6 128056017.69506        36.750    23913558.602 6  99599122.96806        40.500    23913558.526 6  99599121.94706        40.000
R12  22357009.207 8 119427118.12708        48.750    22357012.559 7  92887760.71807        43.250    22357012.953 7  92887762.71807        42.750
R13  20717151.252 6 110628428.71506        38.000    20717154.357 7  86044337.66607        43.000    20717154.397 6  86044339.68406        40.000
R14  22647402.763 7 120723407.53407        45.000    22647406.852 7  93895986.20307        43.000    22647406.680 7  93895935.20307        43.250
R21  23369202.641 7 125053333.70507        45.250    23369204.600 6  97263712.41106        39.750    23369205.048 6  97263713.38906        39.500    23369187.908 6  93699315.42806        40.500
R22  19754358.756 8 105450116.68808        50.500    19754361.018 8  82016785.41308        49.500    19754361.030 8  82016792.40808        49.250
R23  20925996.863 8 111939986.75708        50.250    20926000.980 6  87064457.03006        41.000    20926000.158 6  87064455.03106        41.250
> 2020 01 13 00 07 30.0000000  0 33
E02  27272176.703 7 143316253.67007        42.500    27272177.920 6 107021885.71406        39.250    27272175.520 7 109813744.42407        43.250    27272176.235 7 108417821.56507        44.500
E04  28786784.950 6 151275574.71706        36.750    28786787.851 6 112965537.94006        36.750    28786784.553 6 115912452.47606        38.000    28786785.751 6 114439000.70906        40.500
E11  23935587.789 7 125782385.40807        45.500    23935587.376 7  93928410.07307        46.750    23935584.018 7  96378703.24507        47.000    23935585.375 8  95153555.16408        50.000
E12  21923459.165 7 115208574.44207        44.500    21923459.296 8  86032385.44008        48.000    21923456.569 8  88276702.43108        49.250    21923457.474 8  87154549.93808        51.750
E14  23322439.391 7 122560251.68407        44.250    23322442.072 7  91522283.26007        42.750    23322438.676 7  93909794.22107        43.000    23322439.861 7  92716042.24507        46.000
E19  26702775.274 6 140324040.93906        41.000    26702777.427 6 104787451.38506        37.500    26702774.477 6 107521021.07906        40.000    26702775.563 7 106154233.23407        42.000
E20  21790679.018 6 114510796.98206        36.250
E24  23822493.021 7 125188045.47507        45.750    23822508.139 7  93484637.92807        45.500    23822504.704 7  95923345.04607        46.500    23822505.816 8  94703984.99108        49.000
E25  24791560.873 7 130280528.95907        46.750    24791564.488 8  97287417.31408        49.000    24791561.125 8  99825335.54608        49.750    24791562.300 8  98556375.93508        52.250
E33  27500721.005 7 144517282.13907        42.500    27500723.578 7 107918766.94307        42.500    27500720.039 7 110734023.01607        42.250    27500721.446 7 109326402.98507        45.500
E36  28129293.631 6 147820431.86306        39.250    28129298.176 6 110385406.37306        37.500    28129294.494 6 113265014.16106        36.000    28129296.279 6 111825212.27706        40.000
G07  24350364.865 7 127962023.55607        44.000    24350364.629 4        26.000    24350362.116 4  99710660.21404        26.000    24350362.539 5  99710658.20905        35.000
G08  21852602.184 8 114836217.87508        49.500    21852601.791 6        40.000    21852602.531 6  89482776.18306        40.000    21852603.137 7  89482765.19707        44.500    21852602.702 8  85754330.07508        50.250
G10  21533559.447 8 113159621.81608        51.000    21533559.421 7        43.750    21533560.611 7  88176340.59707        43.750    21533560.126 7  88176335.60207        47.000    21533559.471 8  84502322.47908        51.250
G11  25301667.560 5 132961152.70305        35.750    25301667.171 2        16.750    25301667.183 2 103606092.20502        16.750
G13  25343300.817 5 133179941.59705        35.750    25343300.527 2        13.750    25343298.887 2 103776565.33302        13.750
G15  24593751.307 6 129241048.51406        41.250    24593751.342 3        23.000    24593749.112 3 100707304.51103        23.000    24593749.409 5 100707299.50405        35.000
G16  21550549.285 7 113248899.74707        47.500    21550548.664 6        38.000    21550547.294 6  88245889.06206        38.000
G18  24196808.681 7 127155094.68807        43.250    24196808.489 4        24.250    24196808.709 4  99081891.46504        24.250
G20  21178227.549 8 111292351.87608        48.250    21178226.678 6        38.500    21178225.510 6  86721306.17106        38.500
G21  23340684.924 7 122656136.67607        44.500    23340684.084 5        33.750    23340682.668 5  95576201.99205        33.750
G26  23273088.403 7 122300905.94707        45.250    23273088.077 5        32.250    23273090.937 5  95299421.49205        32.250    23273090.571 6  95299418.49206        40.750    23273090.301 7  91328599.53407        44.750
G27  20289195.213 8 106620460.52908        50.750    20289194.905 7        45.750    20289195.800 7  83080886.80607        45.750    20289195.641 8  83080889.80708        49.250    20289196.149 9  79619190.67909        54.000
G30  25219158.932 6 132527577.98106        37.750    25219158.503 3        21.000    25219159.815 3 103268242.00003        21.000    25219159.270 5 103268243.00105        35.750    25219160.418 7  98965400.11507        42.000
R06  21626966.293 7 115405661.41307        45.500
R07  21455080.214 8 114850718.13808        50.250    21455082.015 7  89328358.03507        46.250    21455081.795 7  89328362.04007        46.250
R08  23888684.038 6 127922816.36106        37.250    23888684.365 6  99495521.95306        40.250    23888684.609 6  99495520.94406        40.000
R12  22380381.555 8 119551969.13608        48.500    22380385.153 7  92984867.06007        43.000    22380385.093 7  92984869.07307        42.750
R13  20722674.895 6 110657924.42706        38.500    20722677.933 7  86067278.73807        43.250    20722677.659 6  86067280.75306        40.000
R14  22631329.450 7 120637723.36407        47.000    22631332.791 7  93829342.96407        43.000    22631332.917 7  93829291.97707        43.000
R21  23388139.225 7 125154668.99107        44.750    23388141.256 6  97342528.69206        39.750    23388141.827 6  97342529.71606        39.500    23388124.666 6  93775243.42406        40.250
R22  19761163.600 8 105486440.68008        51.250    19761165.625 8  82045037.39208        49.250    19761165.917 8  82045044.40208        49.250
R23  20912023.282 8 111865239.76208        50.000    20912027.343 6  87006320.47206        41.250    20912027.085 6  87006318.47506        41.250
> 2020 01 13 00 08  0.0000000  0 33
E02  27258869.017 6 143246323.04306        41.250    27258871.409 6 106969664.74106        41.250    27258867.999 7 109760161.21007        42.500    27258869.361 7 108364919.48107        45.000
E04  28769887.780 6 151186781.34006        36.000    28769890.796 5 112899231.20505        34.500    28769887.679 5 115844415.98205        35.750    28769888.799 6 114371829.09606        38.250
E11  23927486.262 7 125739811.71007        46.000    23927485.888 7  93896618.04407        46.750    23927482.496 7  96346081.85507        47.250    23927483.850 8  95121348.45408        50.000
E12  21929720.658 7 115241478.93807        44.500    21929720.768 8  86056956.98308        48.000    21929718.108 8  88301914.96408        49.250    21929718.961 8  87179441.97708        51.750
E14  23360542.739 7 122760486.24107        43.750    23360545.499 7  91671809.04607        42.500    23360542.065 7  94063220.68407        42.750    23360543.241 7  92867518.36707        45.750
E19  26691115.442 6 140262767.88006        41.000    26691117.535 6 104741695.55006        37.500    26691114.608 6 107474071.62206        40.250    26691115.686 7 106107880.59007        42.000
E20  21790884.971 6 114511877.69106        36.000
E24  23838172.833 7 125270443.05107        45.250    23838187.856 7  93546168.59007        45.250    23838184.409 7  95986480.85907        46.500    23838185.575 8  94766318.22808        48.750
E25  24792628.613 7 130286140.66107        47.000    24792632.304 8  97291607.85708        48.750    24792629.010 8  99829635.40908        50.000    24792630.168 8  98560621.13908        52.250
E33  27515151.197 7 144593111.65707        42.000    27515153.483 7 107975392.84307        42.250    27515149.810 7 110792126.12307        42.500    27515151.416 7 109383767.49007        45.250
E36  28114610.296 6 147743270.56306        40.250    28114615.461 6 110327785.87706        37.000    28114612.106 6 113205890.57906        37.750    28114613.326 6 111766840.23006        40.250
G07  24351667.388 7 127968868.72107        44.000    24351667.152 4        26.500    24351664.740 4  99715994.10304        26.500    24351665.156 5  99715992.11705        35.750
G08  21838666.197 8 114762984.96808        50.000    21838665.782 6        40.000    21838666.831 6  89425711.58206        40.000    21838667.710 7  89425700.59407        44.500    21838666.872 8  85699643.16608        50.500
G10  21523727.686 8 113107955.44208        50.500    21523727.655 7        43.500    21523728.796 7  88136081.10107        43.500    21523728.288 7  88136076.10307        47.250    21523727.672 8  84463740.46508        51.250
G11  25281195.409 6 132853570.17106        37.000    25281194.985 3        18.000    25281194.744 3 103522261.64303        18.000
G13  25346557.088 5 133197053.41605        35.750    25346556.919 2        12.000    25346555.145 2 103789899.20102        12.000
G15  24594354.083 6 129244215.47206        41.750    24594354.145 4        24.000    24594352.025 4 100709772.27704        24.000    24594352.484 5 100709767.26905        35.500
G16  21565582.297 7 113327899.10407        47.500    21565581.671 6        38.000    21565580.353 6  88307447.02206        38.000
G18  24175709.327 6 127044212.72206        40.500    24175709.117 4        24.000    24175708.781 4  98995489.92904        24.000
G20  21181479.541 8 111309441.05408        48.000    21181478.661 6        38.250    21181477.372 6  86734622.41806        38.250
G21  23355600.519 7 122734519.29707        45.000    23355599.683 5        33.500    23355598.078 5  95637279.35405        33.500
G26  23293456.627 7 122407941.63707        45.000    23293456.310 5        32.250    23293459.160 5  95382825.92305        32.250    23293458.871 6  95382822.93106        40.250    23293458.492 7  91408528.78607        45.000
G27  20286310.237 8 106605300.82608        50.750    20286309.933 7        45.500    20286311.045 7  83069074.04207        45.500    20286310.718 8  83069077.04508        49.250    20286311.370 9  79607870.11909        54.000
G30  25211793.357 6 132488871.42506        39.000    25211792.933 3        21.000    25211794.118 3 103238081.03403        21.000    25211794.293 5 103238082.03305        35.250    25211794.751 6  98936495.86606        41.750
R06  21633146.229 7 115438639.07807        45.250
R07  21439988.339 8 114769931.35708        51.000    21439990.132 7  89265523.89707        46.250    21439990.340 7  89265527.88407        46.500
R08  23863813.935 6 127789634.50206        36.000    23863813.214 6  99391936.11306        40.250    23863813.573 6  99391935.08606        39.250
R12  22403805.760 8 119677095.81608        49.000    22403808.661 7  93082187.82307        42.250    22403809.058 6  93082189.82806        41.500
R13  20728352.227 6 110688243.27906        38.250    20728355.638 7  86090860.07707        42.750    20728355.726 6  86090862.07006        39.500
R14  22615367.108 7 120552635.75407        46.500    22615369.407 6  93763163.70806        41.750    22615370.263 6  93763112.70206        41.750
R21  23407088.712 7 125256068.51807        45.500    23407090.284 6  97421394.98806        39.750    23407090.884 6  97421395.96906        38.500    23407073.466 6  93851219.55606        40.250
R22  19768036.351 8 105523127.35608        51.000    19768038.160 8  82073571.48508        49.250    19768038.467 8  82073578.48108        49.000
R23  20898099.313 8 111790756.65608        49.750    20898103.975 6  86948389.21506        41.500    20898103.122 7  86948387.19407        42.000
> 2020 01 13 00 08 30.0000000  0 33
E02  27245613.904 6 143176669.98306        38.000    27245617.117 7 106917651.14307        43.250    27245612.794 6 109706790.70006        40.000    27245614.725 7 108312227.43307        44.750
E04  28752976.246 6 151097907.67606        37.750    28752978.883 6 112832864.47306        36.500    28752975.482 6 115776317.94906        36.750    28752976.778 6 114304596.71906        39.500
E11  23919422.178 7 125697435.42907        46.000    23919422.001 7  93864973.43907        47.000    23919418.601 7  96313611.73107        46.750    23919419.896 8  95089291.09108        50.000
E12  21936018.733 7 115274574.79407        44.500    21936018.676 8  86081671.42508        48.000    21936015.991 8  88327274.13408        49.000    21936016.880 8  87204478.78108        51.500
E14  23398663.810 7 122960813.28107        44.250    23398666.432 7  91821403.87407        42.750    23398662.944 7  94216717.99807        42.500    23398664.270 7  93019064.44107        45.500
E19  26679510.796 6 140201786.40606        41.000    26679513.135 6 104696157.44606        37.500    26679510.413 6 107427345.55606        40.000    26679511.258 7 106061748.50207        42.000
E20  21791173.999 6 114513397.84806        36.000
E24  23853897.169 7 125353075.42607        45.500    23853912.275 7  93607874.57507        45.500    23853908.828 7  96049796.56507        46.250    23853910.013 8  94828829.07508        48.750
E25  24793783.037 7 130292207.27107        47.250    24793786.704 8  97296138.09708        49.000    24793783.480 8  99834283.83508        49.500    24793784.638 8  98565210.47308        52.250
E33  27529585.007 7 144668960.91007        42.500    27529587.004 7 108032033.48307        42.000    27529583.740 7 110850244.36207        42.250    27529585.090 7 109441146.92807        45.250
E36  28099935.507 6 147666154.52606        40.250    28099940.951 6 110270199.22206        37.500    28099937.288 6 113146801.67006        36.750    28099938.677 6 111708502.46206        40.250
G07  24353072.062 7 127976250.07407        45.000    24353071.834 4        26.250    24353069.939 4  99721745.80504        26.250    24353070.528 6  99721743.81006        36.000
G08  21824776.338 8 114689992.89708        49.500    21824775.923 6        40.250    21824776.746 6  89368834.64806        40.250    21824777.653 7  89368823.66107        44.500    21824776.966 8  85645136.10308        50.500
G10  21513994.823 8 113056808.98608        51.000    21513994.792 7        43.500    21513995.880 7  88096226.73007        43.500    21513995.469 7  88096221.74607        47.000    21513994.905 8  84425546.70008        51.500
G11  25260726.406 6 132746004.02906        37.000    25260725.991 2        17.250    25260725.319 2 103438443.90502        17.250
G13  25349919.878 5 133214724.14805        34.500    25349919.655 2        14.500    25349917.797 2 103803668.57802        14.500
G15  24595067.043 7 129247963.84007        42.000    24595067.110 3        23.500    24595065.562 3 100712693.10503        23.500    24595065.652 5 100712688.09305        35.000
G16  21580696.361 7 113407324.98207        47.750    21580695.735 6        37.250    21580694.567 6  88369337.33106        37.250
G18  24154630.545 6 126933444.79206        41.000    24154630.317 4        24.500    24154630.697 4  98909177.27504        24.500
G20  21184843.075 7 111327115.83407        47.500    21184842.204 6        38.250    21184840.779 6  86748394.97906        38.250
G21  23370534.213 7 122812996.51507        44.750    23370533.373 5        32.750    23370531.884 5  95698430.42705        32.750
G26  23313859.741 7 122515160.96907        45.000    23313859.446 5        31.500    23313862.346 5  95466373.45005        31.500    23313862.358 6  95466370.45806        40.250    23313861.727 7  91488595.15407        45.000
G27  20283504.786 8 106590557.13608        50.750    20283504.482 7        45.500    20283505.365 7  83057585.44707        45.500    20283505.154 8  83057588.44908        49.250    20283505.806 9  79596860.21409        54.000
G30  25204523.790 6 132450669.52706        38.250    25204523.343 3        21.250    25204524.583 3 103208313.31703        21.250    25204524.026 6 103208314.29406        36.000    25204525.206 7  98907968.46307        42.000
R06  21639474.849 7 115472411.94607        45.500
R07  21425011.721 8 114689762.00808        51.000    21425013.855 7  89203169.96607        46.250    21425013.619 7  89203173.96007        46.000
R08  23838946.026 6 127656473.67006        38.000    23838946.328 6  99288366.57206        40.000    23838945.511 6  99288365.55706        39.750
R12  22427279.591 8 119802491.11708        48.250    22427283.030 7  93179717.50907        42.250    22427282.977 7  93179719.51707        42.000
R13  20734184.812 6 110719381.33206        39.500    20734186.651 7  86115078.53507        42.750    20734186.688 6  86115080.53606        39.500
R14  22599516.500 7 120468145.36307        45.250    22599519.647 7  93697448.92907        42.000    22599519.907 7  93697397.93607        42.250
R21  23426048.873 7 125357528.72307        46.000    23426050.165 6  97500308.42706        40.000    23426050.722 6  97500309.44906        39.500    23426033.790 6  93927241.14706        40.000
R22  19774976.300 8 105560173.24008        51.250    19774978.176 8  82102384.93908        49.250    19774978.497 8  82102391.94208        49.000
R23  20884224.433 8 111716535.36408        50.000    20884229.179 7  86890661.54407        42.000    20884228.019 6  86890659.54506        41.750
> 2020 01 13 00 09  0.0000000  0 33
E02  27232412.439 6 143107294.38506        41.750    27232415.160 7 106865844.72007        42.500    27232410.080 6 109653632.74706        39.750    27232412.080 7 108259745.24207        44.250
E04  28736048.465 6 151008953.07006        37.250    28736051.574 5 112766437.29505        35.500    28736048.176 6 115708157.90106        36.500    28736049.196 6 114237303.10606        38.750
E11  23911395.571 7 125655254.69807        46.250    23911395.249 7  93833474.83707        47.000    23911391.919 7  96281291.43207        47.250    23911393.146 8  95057381.64008        50.250
E12  21942352.779 7 115307859.53007        45.000    21942352.532 8  86106526.90308        48.000    21942349.778 8  88352778.01608        49.250    21942350.741 8  87229658.46408        51.750
E14  23436801.308 7 123161226.68107        44.250    23436803.773 7  91971063.19507        42.750    23436800.365 7  94370281.47907        42.750    23436801.702 7  93170675.84207        45.750
E19  26667961.932 6 140141096.36106        41.000    26667964.161 6 104650836.98806        38.000    26667961.412 6 107380842.82106        40.250    26667962.376 7 106015836.90607        42.250
E20  21791546.915 6 114515355.50606        36.000
E24  23869665.773 7 125435938.85707        45.000    23869680.615 7  93669753.10007        45.500    23869677.279 7  96113289.31807        46.500    23869678.439 8  94891514.71508        49.000
E25  24795023.837 7 130298726.87707        47.500    24795027.424 8  97301006.62108        49.000    24795024.086 8  99839279.36208        49.750    24795025.285 8  98570142.50008        52.500
E33  27544021.820 7 144744827.56107        43.250    27544023.929 6 108088687.14406        41.750    27544020.942 7 110908375.92107        43.000    27544021.960 7 109498539.53407        45.250
E36  28085269.004 6 147589082.05006        40.000    28085272.966 6 110212645.12106        36.250    28085269.965 6 113087746.12406        37.250    28085271.970 6 111650197.62706        39.750
G07  24354578.194 7 127984164.99007        44.250    24354577.953 4        25.500    24354575.641 4  99727913.26804        25.500    24354576.159 5  99727911.27005        35.500
G08  21810932.189 8 114617241.42008        49.500    21810931.765 6        40.250    21810932.858 6  89312145.19806        40.250    21810933.755 7  89312134.20607        44.750    21810932.930 8  85590808.71808        50.500
G10  21504360.871 8 113006182.12908        50.750    21504360.840 7        43.750    21504361.841 7  88056777.25007        43.750    21504361.528 7  88056772.24907        46.750    21504360.952 8  84387740.94708        51.500
G11  25240260.161 6 132638453.10706        37.750    25240259.714 3        18.250    25240258.949 3 103354638.00703        18.250
G13  25353388.374 5 133232951.38305        35.500    25353388.155 2        13.750    25353386.255 2 103817871.67902        13.750
G15  24595890.926 7 129252291.92807        42.250    24595890.988 4        24.750    24595889.087 4 100716065.63704        24.750    24595889.153 5 100716060.62605        35.250
G16  21595891.052 7 113487173.90907        47.000    21595890.426 6        37.500    21595889.386 6  88431557.28306        37.500
G18  24133573.552 6 126822790.31206        41.000    24133573.320 4        25.000    24133574.072 4  98822953.02804        25.000
G20  21188317.223 8 111345373.24908        48.000    21188316.356 6        38.250    21188315.006 6  86762621.53606        38.250
G21  23385485.515 7 122891566.00407        44.750    23385484.670 5        33.000    23385483.228 5  95759653.39705        33.000
G26  23334297.166 7 122622559.57907        44.750    23334296.867 5        31.750    23334299.620 5  95550060.67505        31.750    23334299.475 6  95550057.66106        40.000    23334299.004 7  91568795.40407        44.750
G27  20280777.912 8 106576228.22908        50.750    20280777.604 7        45.500    20280778.588 7  83046420.06007        45.500    20280778.272 8  83046423.06708        49.000    20280779.120 9  79586160.04809        54.000
G30  25197349.655 6 132412971.52806        38.250    25197349.258 3        20.500    25197350.657 3 103178938.25003        20.500    25197349.785 5 103178939.25805        35.500    25197351.477 6  98879817.34106        41.250
R06  21645952.615 7 115506975.99207        45.750
R07  21410151.487 8 114610211.88808        52.000    21410153.222 7  89141297.66107        46.250    21410153.238 7  89141301.65807        46.000
R08  23814081.452 6 127523335.65506        36.250    23814083.785 6  99184814.83406        40.000    23814083.622 6  99184813.82106        39.250
R12  22450803.075 8 119928148.51208        48.750    22450806.380 7  93277451.04907        42.500    22450806.337 7  93277453.04107        42.000    22450868.807 6  90017294.51216        36.000
R13  20740168.399 6 110751334.76006        39.250    20740170.478 7  86139931.16907        42.250    20740170.394 6  86139933.17706        39.500
R14  22583779.606 7 120384254.03607        47.000    22583782.930 7  93632200.13307        43.750    22583782.872 7  93632149.13607        44.000
R21  23445019.571 7 125459046.94507        45.500    23445022.387 6  97579267.00906        40.500    23445022.201 6  97579267.99906        40.500    23445004.720 6  94003306.20206        39.750
R22  19781982.524 8 105597575.22908        50.750    19781984.703 8  82131475.37908        49.250    19781985.253 8  82131482.37908        49.000
R23  20870398.722 8 111642574.90108        50.500    20870402.766 6  86833136.75906        41.500    20870401.911 6  86833134.74306        41.500
> 2020 01 13 00 09 30.0000000  0 33
E02  27219265.778 7 143038205.69307        43.500    27219267.063 6 106814252.48406        40.500    27219263.918 7 109600694.62207        42.000    27219264.705 7 108207480.05807        44.250
E04  28719107.358 6 150919927.26906        38.500    28719110.557 6 112699956.95106        36.750    28719107.024 6 115639943.29706        36.250    28719108.217 6 114169955.63106        39.500
E11  23903407.565 7 125613277.28707        45.750    23903407.265 7  93802128.08707        46.750    23903403.886 7  96249126.94007        47.250    23903405.093 8  95025626.01808        50.000
E12  21948723.835 7 115341340.26407        44.750    21948723.756 7  86131528.75907        47.750    21948720.969 8  88378432.09108        49.000    21948721.913 8  87254986.42808        51.250
E14  23474955.644 7 123361730.12807        44.500    23474958.451 7  92120789.77007        42.750    23474955.033 7  94523913.96507        42.500    23474956.291 7  93322355.37307        45.750
E19  26656470.502 6 140080707.27606        41.250    26656472.589 6 104605741.24106        38.000    26656469.757 6 107334570.66406        40.250    26656470.663 7 105970152.95607        42.250
E20  21792003.864 6 114517758.45906        36.500
E24  23885479.005 7 125519039.32407        45.000    23885494.084 7  93731808.64507        45.500    23885490.807 7  96176963.70507        46.250    23885491.920 8  94954379.68008        48.750
E25  24796352.025 7 130305707.16507        47.250    24796355.750 8  97306219.15608        48.750    24796352.423 8  99844627.88008        49.750    24796353.621 8  98575423.02708        52.250
E33  27558463.638 7 144820718.94207        43.250    27558465.712 6 108145359.23906        41.500    27558462.493 7 110966526.43407        42.750    27558463.544 7 109555950.84107        45.250
E36  28070612.598 6 147512061.08806        40.750    28070619.109 6 110155129.46106        38.500    28070615.015 6 113028730.07706        38.000    28070615.923 6 111591931.78206        41.250
G07  24356187.145 7 127992620.22207        45.000    24356186.895 4        26.000    24356184.809 4  99734501.74304        26.000    24356185.203 6  99734499.72706        36.250
G08  21797135.597 8 114544739.41908        49.500    21797135.168 6        40.250    21797136.404 6  89255650.14006        40.250    21797136.994 7  89255639.14507        44.500    21797136.206 8  85536667.61408        50.500
G10  21494827.647 8 112956084.22508        50.750    21494827.603 7        43.500    21494828.480 7  88017739.93407        43.500    21494828.230 7  88017734.94007        46.750    21494827.645 8  84350330.20008        51.750
G11  25219797.867 6 132530926.07506        37.000    25219797.429 3        18.000    25219797.461 3 103270850.69803        18.000
G13  25356964.588 6 133251742.55006        36.500    25356964.311 2        13.250    25356962.176 2 103832514.16202        13.250
G15  24596826.398 7 129257207.53407        42.000    24596826.415 3        23.500    24596824.068 3 100719895.99403        23.500    24596825.132 5 100719891.00105        34.750
G16  21611167.383 7 113567451.28607        47.500    21611166.766 6        37.250    21611165.705 6  88494111.09706        37.250
G18  24112540.062 6 126712258.13806        41.000    24112539.834 4        24.500    24112540.248 4  98736824.07104        24.500
G20  21191903.664 7 111364220.32807        47.750    21191902.793 6        38.000    21191901.453 6  86777307.57306        38.000
G21  23400455.419 7 122970234.22807        44.750    23400454.543 5        32.500    23400453.362 5  95820953.30105        32.500
G26  23354769.363 7 122730142.74207        44.000    23354769.077 5        31.250    23354772.050 5  95633891.69305        31.250    23354772.019 6  95633888.70106        40.500    23354771.375 7  91649133.47207        44.750
G27  20278131.779 8 106562322.56708        50.500    20278131.475 7        45.250    20278132.344 7  83035584.47107        45.250    20278132.491 8  83035587.47808        49.000    20278132.969 9  79575775.94809        54.000
G30  25190273.902 6 132375786.36506        38.000    25190273.513 3        20.250    25190274.667 3 103149962.80703        20.250    25190274.638 6 103149963.81606        36.500    25190275.311 6  98852049.21106        41.500
R06  21652579.067 7 115542337.74907        45.000
R07  21395408.909 8 114531292.46908        51.000    21395410.314 7  89079915.90707        46.250    21395410.248 7  89079919.89907        46.250
R08  23789226.898 6 127390232.59206        37.500    23789227.457 6  99081290.21106        39.750    23789227.611 6  99081289.22106        39.000
R12  22474376.413 8 120054071.62608        49.250    22474379.545 7  93375391.27407        42.750    22474379.675 7  93375393.26007        42.000
R13  20746305.960 6 110784109.71706        39.000    20746308.089 7  86165422.79107        42.500    20746307.973 6  86165424.79006        39.000
R14  22568156.297 7 120300973.15007        47.250    22568158.526 7  93567426.11707        42.000    22568158.997 7  93567375.11907        42.000
R21  23464003.243 7 125560630.04407        45.750    23464004.971 6  97658276.04006        40.000    23464005.471 6  97658277.02606        39.500    23463988.296 6  94079419.87006        39.750
R22  19789057.497 8 105635340.47108        50.500    19789059.410 8  82160848.34008        49.250    19789059.721 8  82160855.34408        49.000
R23  20856623.318 8 111568883.76708        50.750    20856626.349 6  86775821.43806        41.000    20856626.435 6  86775819.42506        41.500
> 2020 01 13 00 10  0.0000000  0 33
E02  27206171.119 6 142969395.77806        41.000    27206172.958 6 106762868.41306        40.000    27206170.687 7 109547970.14607        43.250    27206171.383 7 108155425.78007        44.750
E04  28702151.484 6 150830821.99306        37.500    28702154.302 5 112633417.26205        35.250    28702151.376 6 115571667.78906        36.500    28702152.142 6 114102548.02606        39.000
E11  23895456.295 7 125571493.47107        46.000    23895455.996 7  93770925.89307        47.000    23895452.750 7  96217110.77307        47.500    23895453.891 8  94994016.83808        50.250
E12  21955130.323 7 115375006.66007        45.000    21955130.264 8  86156669.24108        48.250    21955127.393 8  88404228.41708        49.000    21955128.407 8  87280454.83408        51.500
E14  23513125.084 7 123562309.72907        43.750    23513127.491 7  92270573.20707        42.500    23513124.103 7  94677604.78807        42.250    23513125.323 7  93474092.50307        45.500
E19  26645034.395 6 140020611.06006        41.250    26645036.765 6 104560864.18206        37.750    26645033.679 6 107288522.91406        40.250    26645034.753 7 105924690.55107        42.000
E20  21792543.750 6 114520596.95706        36.250
E24  23901335.348 7 125602365.29507        44.750    23901350.485 7  93794032.58707        45.250    23901347.186 7  96240810.87707        46.250    23901348.325 8  95017415.23808        48.750
E25  24797766.176 7 130313138.33707        47.000    24797769.914 8  97311768.39708        49.250    24797766.556 8  99850321.88108        49.750    24797767.736 8  98581044.64608        52.500
E33  27572907.879 7 144896624.82507        43.250    27572910.344 7 108202042.17607        42.250    27572906.667 7 111024688.05407        42.500    27572907.994 7 109613373.12007        45.250
E36  28055964.032 6 147435082.04106        40.750    28055967.945 6 110097645.11306        37.000    28055965.484 6 112969746.13306        38.750    28055966.735 6 111533697.62506        40.750
G07  24357897.276 7 128001605.48607        43.750    24357897.053 4        25.000    24357894.502 4  99741503.24104        25.000    24357895.547 5  99741501.26105        35.250
G08  21783384.876 8 114472478.85608        49.250    21783384.456 6        40.250    21783385.382 6  89199343.21506        40.250    21783386.201 7  89199332.22507        44.250    21783385.412 8  85482706.81008        50.500
G10  21485393.421 8 112906507.12208        50.750    21485393.399 7        43.750    21485394.282 7  87979108.44007        43.750    21485393.944 7  87979103.44507        46.500    21485393.392 8  84313308.35208        51.500
G11  25199339.337 6 132423414.28906        38.000    25199338.895 2        17.750    25199338.192 2 103187075.29802        17.750
G13  25360645.499 6 133271087.06406        36.250    25360645.209 2        12.250    25360643.265 2 103847587.79702        12.250
G15  24597871.811 7 129262701.13307        42.000    24597871.828 3        23.250    24597869.515 3 100724176.73703        23.250    24597870.048 5 100724171.74305        34.250
G16  21626522.694 7 113648145.17007        47.000    21626522.082 6        37.000    21626521.226 6  88556989.46206        37.000
G18  24091528.165 7 126601839.85807        42.000    24091527.902 4        24.750    24091528.281 4  98650783.86204        24.750
G20  21195600.335 8 111383646.50108        48.000    21195599.459 6        38.250    21195598.188 6  86792444.85306        38.250
G21  23415442.374 7 123048990.33007        44.750    23415441.507 5        32.250    23415440.063 5  95882321.68205        32.250
G26  23375274.614 7 122837898.21907        44.000    23375274.333 5        31.250    23375277.149 5  95717856.99805        31.250    23375277.277 6  95717854.00806        40.750    23375276.482 7  91729600.21407        44.500
G27  20275564.577 8 106548831.07408        50.500    20275564.273 7        45.500    20275564.931 7  83025071.61507        45.500    20275565.045 8  83025074.62008        48.750    20275565.637 9  79565701.12609        54.000
G30  25183293.585 6 132339105.46606        38.250    25183293.223 3        21.000    25183294.594 3 103121380.27503        21.000    25183294.543 5 103121381.27505        35.750    25183295.178 6  98824657.62406        41.500
R06  21659353.593 7 115578485.41807        45.500
R07  21380782.763 8 114452997.71308        51.250    21380784.209 7  89019020.00007        46.250    21380783.894 7  89019023.99107        45.500
R08  23764377.183 6 127257158.49806        38.000    23764377.077 6  98977788.18106        40.000    23764377.740 6  98977787.17306        40.000
R12  22497996.467 8 120180245.76508        49.000    22497999.643 7  93473526.71607        42.750    22497999.395 7  93473528.70507        42.250
R13  20752594.007 6 110817694.31706        39.000    20752597.766 7  86191544.13707        42.500    20752597.364 6  86191546.12206        39.500
R14  22552645.859 7 120218296.21607        45.250    22552648.015 6  93503121.82306        41.250    22552648.533 6  93503070.81906        41.000
R21  23482997.091 7 125662267.47007        46.000    23482998.098 6  97737327.33706        39.750    23482998.249 6  97737328.32606        38.750    23482981.133 6  94155574.25406        40.000
R22  19796198.040 8 105673458.36408        50.750    19796200.233 8  82190495.60108        49.250    19796200.501 8  82190502.59508        49.000
R23  20842895.653 8 111495452.83708        50.250    20842899.613 6  86718708.50606        41.250    20842899.236 6  86718706.49506        41.500
> 2020 01 13 00 10 30.0000000  0 33
E02  27193130.845 6 142900869.51906        39.500    27193133.669 6 106711696.18906        41.750    27193130.416 7 109495463.05007        42.250    27193131.805 7 108103586.12907        45.000
E04  28685181.196 6 150741642.46406        37.750    28685183.736 5 112566822.13705        34.500    28685180.819 6 115503335.39606        36.500    28685181.793 6 114035084.26606        38.750
E11  23887542.446 7 125529906.45407        46.000    23887542.210 7  93739870.66507        47.000    23887538.989 7  96185245.40707        47.500    23887540.120 8  94962556.54008        50.250
E12  21961572.606 7 115408861.31207        45.000    21961572.601 8  86181950.31508        48.000    21961569.724 8  88430168.99408        49.000    21961570.736 8  87306065.66008        51.500
E14  23551308.254 7 123762964.64507        44.000    23551310.903 7  92420412.88907        42.750    23551307.344 7  94831353.35407        42.500    23551308.687 7  93625886.63007        45.500
E19  26633654.979 6 139960812.65206        40.500    26633657.219 6 104516209.54306        37.750    26633654.445 6 107242703.36706        40.250    26633655.497 7 105879453.45807        42.250
E20  21793168.079 6 114523874.20706        36.000
E24  23917235.128 7 125685918.20707        44.250    23917250.088 7  93856425.98607        45.250    23917246.884 7  96304831.93207        46.250    23917247.922 8  95080622.46408        48.750
E25  24799266.635 7 130321023.51607        47.250    24799270.432 8  97317656.66908        49.000    24799267.147 8  99856363.76408        49.750    24799268.252 8  98587009.72308        52.500
E33  27587355.537 7 144972548.02307        43.000    27587358.080 7 108258738.02407        42.000    27587354.207 7 111082862.94007        42.000    27587355.793 7 109670808.48907        45.000
E36  28041324.185 6 147358148.33006        40.750    28041329.960 6 110040194.62806        38.500    28041324.998 6 112910796.91806        37.250    28041327.179 6 111475497.79606        41.000
G07  24359708.546 7 128011123.07107        43.750    24359708.301 4        25.750    24359705.259 4  99748919.52504        25.750    24359705.423 5  99748917.53405        33.500
G08  21769680.908 8 114400464.23608        49.000    21769680.493 6        40.250    21769681.254 6  89143227.93206        40.250    21769682.304 7  89143216.92707        44.250    21769681.659 8  85428929.66608        50.750
G10  21476059.254 8 112857455.55108        51.000    21476059.228 7        44.000    21476060.088 7  87940886.45707        44.000    21476059.474 7  87940881.46707        46.500    21476059.148 8  84276678.96108        51.750
G11  25178884.540 6 132315921.75506        38.250    25178884.111 3        18.000    25178882.732 3 103103314.91703        18.000
G13  25364431.676 5 133290987.43805        34.250    25364431.296 1        10.500    25364430.211 1 103863094.56601        10.500
G15  24599027.676 6 129268775.92106        41.750    24599027.693 3        23.000    24599025.483 3 100728910.36303        23.000    24599025.642 5 100728905.34905        33.500
G16  21641957.628 7 113729256.30707        46.500    21641957.016 6        36.750    21641956.127 6  88620192.96206        36.750
G18  24070539.869 6 126491539.79606        39.500    24070539.597 4        24.500    24070538.704 4  98564835.76404        24.500
G20  21199407.628 7 111403654.22407        47.250    21199406.752 6        38.250    21199405.601 6  86808035.29006        38.250
G21  23430446.429 7 123127836.19207        44.250    23430445.553 5        32.000    23430443.886 5  95943760.00505        32.000
G26  23395812.708 7 122945826.75907        44.000    23395812.422 5        31.500    23395815.284 5  95801957.14305        31.500    23395815.561 6  95801954.14906        40.750    23395814.625 7  91810196.18707        44.500
G27  20273076.689 8 106535757.68108        50.250    20273076.385 7        45.250    20273077.139 7  83014884.55107        45.250    20273077.186 8  83014887.55108        48.750    20273077.877 9  79555938.51509        54.000
G30  25176410.714 6 132302933.09506        38.250    25176410.348 3        20.750    25176410.933 3 103093194.02003        20.750    25176411.118 5 103093195.01605        35.750    25176412.110 7  98797645.79507        42.250
R06  21666274.939 7 115615420.94407        45.250
R07  21366274.796 8 114375334.69208        51.500    21366275.967 7  88958615.43607        46.250    21366276.536 7  88958619.42807        45.500
R08  23739530.806 6 127124120.57406        36.750    23739533.055 6  98874314.27606        39.500    23739533.197 6  98874313.26206        39.500
R12  22521663.334 8 120306670.11708        48.500    22521666.180 7  93571856.76907        42.750    22521666.295 7  93571858.75907        42.000
R13  20759035.899 6 110852090.01406        39.000    20759038.977 7  86218296.32607        43.000    20759039.605 6  86218298.31006        39.500
R14  22537250.579 7 120136230.04407        46.750    22537253.519 7  93439292.57407        42.500    22537253.712 7  93439241.58907        42.250
R21  23502000.754 7 125763961.66807        44.500    23502003.111 6  97816422.78406        40.750    23502002.259 6  97816423.79106        41.250    23501986.047 6  94231771.16106        40.250
R22  19803405.486 8 105711931.04108        51.000    19803407.420 8  82220418.77908        49.250    19803407.915 8  82220425.77508        48.500
R23  20829218.075 8 111422286.03508        50.500    20829221.943 6  86661801.01206        41.500    20829221.535 7  86661799.00407        42.000
> 2020 01 13 00 11  0.0000000  0 33
E02  27180146.239 7 142832633.05607        42.750    27180149.153 7 106660740.40007        43.000    27180144.586 6 109443177.94106        40.500    27180146.616 7 108051965.68507        44.750
E04  28668197.826 6 150652394.66306        39.000    28668200.393 5 112500176.02905        35.250    28668197.399 6 115434950.69306        36.750    28668198.428 6 113967568.86606        39.000
E11  23879667.253 7 125488520.64907        46.250    23879666.708 7  93708965.69707        46.750    23879663.515 7  96153534.21907        47.250    23879664.640 8  94931248.46208        50.000
E12  21968051.428 7 115442908.05007        45.000    21968051.518 7  86207374.82507        47.750    21968048.548 8  88456256.75108        48.750    21968049.656 8  87331821.79408        51.250
E14  23589506.229 7 123963695.25407        43.500    23589508.693 7  92570309.10207        42.750    23589505.271 7  94985159.90107        42.250    23589506.472 7  93777738.00707        45.500
E19  26622333.494 6 139901318.22906        40.500    26622336.123 6 104471781.91206        38.500    26622332.945 6 107197116.75106        40.250    26622334.118 7 105834446.33707        42.500
E20  21793875.590 6 114527594.50406        36.500
E24  23933178.270 7 125769700.70607        44.000    23933193.382 7  93918990.83007        45.750    23933190.167 7  96369028.90307        46.250    23933191.219 8  95144003.37208        49.000
E25  24800854.508 7 130329367.05407        46.750    24800858.134 8  97323887.21408        48.750    24800854.779 8  99862756.84508        49.750    24800855.977 8  98593321.53708        52.250
E33  27601807.366 7 145048492.53507        42.750    27601809.981 6 108315449.80606        41.500    27601805.929 6 111141054.16106        41.750    27601807.652 7 109728259.99007        44.500
E36  28026693.760 6 147281264.54406        40.000    28026698.069 6 109982781.37806        38.000    28026696.702 6 112851886.00106        39.750    28026697.023 7 111417335.68607        42.000
G07  24361621.430 7 128021176.74607        44.250    24361621.216 4        26.500    24361618.639 4  99756753.55204        26.500    24361618.544 5  99756751.56905        35.750
G08  21756024.813 8 114328701.37008        49.250    21756024.393 6        40.250    21756025.384 6  89087308.82606        40.250    21756026.318 7  89087297.82707        44.250    21756025.644 8  85375340.53108        50.750
G10  21466826.162 8 112808935.48408        51.250    21466826.136 7        44.000    21466827.019 7  87903078.62507        44.000    21466826.605 7  87903073.62907        46.500    21466826.071 8  84240446.46208        51.750
G11  25158434.100 6 132208453.84806        37.000    25158433.698 2        17.750    25158432.303 2 103019573.75902        17.750
G13  25368325.541 5 133311447.67105        34.500    25368325.161 1        10.750    25368323.661 1 103879037.55801        10.750
G15  24600295.426 7 129275436.78107        42.250    24600295.434 3        23.250    24600293.188 3 100734100.64503        23.250    24600294.109 5 100734095.65505        34.750
G16  21657472.581 7 113810787.07707        46.750    21657471.978 6        36.250    21657470.819 6  88683723.44106        36.250
G18  24049573.325 6 126381363.98406        41.000    24049573.048 4        24.500    24049572.925 4  98478984.48004        24.500
G20  21203326.380 7 111424246.30707        47.750    21203325.513 6        38.500    21203324.258 6  86824081.06706        38.500
G21  23445468.022 7 123206775.32507        44.750    23445467.133 5        32.250    23445465.556 5  96005271.01105        32.250
G26  23416384.042 7 123053930.23007        44.000    23416383.761 5        31.250    23416386.716 5  95886193.61005        31.250    23416386.696 6  95886190.60706        40.500    23416386.002 7  91890922.81107        44.500
G27  20270669.607 8 106523107.44208        50.250    20270669.303 7        45.250    20270669.859 7  83005027.21707        45.250    20270670.045 8  83005030.21908        48.750    20270670.574 9  79546491.90309        54.000
G30  25169625.160 6 132267274.80906        38.250    25169624.767 3        21.000    25169625.161 3 103065408.34003        21.000    25169625.859 5 103065409.33505        35.500    25169626.220 7  98771017.86007        42.000
R06  21673344.695 7 115653146.82707        45.500
R07  21351886.419 8 114298311.47608        51.750    21351887.376 7  88898708.50907        46.250    21351887.569 7  88898712.50707        45.750
R08  23714696.172 6 126991127.51506        38.000    23714697.229 6  98770875.24606        39.750    23714697.525 6  98770874.22506        39.750
R12  22545376.954 8 120433344.68908        48.000    22545380.111 7  93670381.45607        42.000    22545380.107 6  93670383.43906        41.750
R13  20765630.009 6 110887299.72406        39.000    20765632.675 7  86245681.62707        42.750    20765632.018 6  86245683.62806        39.250
R14  22521971.648 7 120054782.53507        47.250    22521974.298 7  93375944.52807        43.000    22521974.400 7  93375893.52207        43.000
R21  23521015.259 7 125865716.39907        43.250    23521018.896 6  97895565.32406        40.000    23521018.242 6  97895566.31906        40.250    23521001.045 6  94308013.43906        40.500
R22  19810679.864 8 105750762.35208        50.750    19810681.838 8  82250620.91408        49.250    19810682.107 8  82250627.91008        48.750
R23  20815590.461 8 111349388.70608        51.000    20815594.718 6  86605103.10506        41.750    20815594.204 7  86605101.09107        42.000
> 2020 01 13 00 11 30.0000000  0 33
E02  27167217.258 7 142764687.91907        43.000    27167219.240 7 106610002.15107        43.000    27167214.542 6 109391116.04106        40.500    27167216.418 7 108000565.60707        44.750
E04  28651201.886 6 150563080.20806        38.500    28651204.561 5 112433480.13105        35.000    28651201.226 6 115366514.90206        36.500    28651202.443 6 113900003.02306        38.750
E11  23871829.979 7 125447336.00107        46.000    23871829.503 7  93678210.93707        47.000    23871826.346 7  96121977.15407        47.500    23871827.465 8  94900092.54908        50.250
E12  21974566.607 7 115477146.12807        45.000    21974566.843 8  86232942.21608        48.000    21974563.822 8  88482491.11808        48.750    21974564.954 8  87357722.67008        51.500
E14  23627717.407 7 124164497.38307        43.750    23627720.115 7  92720258.73007        42.750    23627716.502 7  95139021.24907        42.250    23627717.873 7  93929643.49707        45.500
E19  26611070.382 6 139842129.32106        40.750    26611072.780 6 104427582.39306        38.250    26611069.695 6 107151764.20806        40.500    26611070.861 7 105789670.30407        42.500
E20  21794668.088 6 114531757.75506        36.500
E24  23949164.824 7 125853710.80307        43.500    23949179.990 7  93981725.64307        45.500    23949176.664 7  96433400.28007        46.500    23949177.775 8  95207556.46508        49.000
E25  24802529.272 7 130338168.69507        47.500    24802533.048 8  97330459.85208        49.000    24802529.612 8  99869500.94608        49.750    24802530.882 8  98599979.90508        52.250
E33  27616263.110 7 145124457.82007        43.000    27616265.670 6 108372177.09806        41.500    27616261.941 6 111199261.30706        41.750    27616263.491 7 109785727.20807        44.500
E36  28012072.647 6 147204430.74306        38.000    28012077.714 6 109925405.52506        39.000    28012073.424 6 112793013.33406        38.250    28012075.309 6 111359211.44506        41.750
G07  24363636.494 7 128031765.58207        44.000    24363636.258 4        26.500    24363634.205 4  99765004.58104        26.500    24363634.474 6  99765002.59606        36.000
G08  21742416.841 8 114257191.48108        49.000    21742416.430 6        40.000    21742417.687 6  89031586.84806        40.000    21742418.301 7  89031575.85407        44.750    21742417.759 8  85321940.30608        50.750
G10  21457694.571 8 112760948.30008        51.000    21457694.549 7        43.750    21457695.290 7  87865686.02407        43.750    21457695.260 7  87865681.03107        46.750    21457694.397 8  84204611.89208        52.000
G11  25137988.081 6 132101011.26506        38.000    25137987.648 3        18.250    25137986.877 3 102935852.29603        18.250
G13  25372325.416 5 133332466.54605        32.750    25372325.045 1         7.750    25372323.492 1 103895415.94701         7.750
G15  24601674.159 7 129282683.30507        42.500    24601674.163 4        24.000    24601672.330 4 100739747.30204        24.000    24601671.783 5 100739742.29805        35.000
G16  21673066.688 7 113892735.20107        46.750    21673066.076 6        36.500    21673065.049 6  88747579.13306        36.500
G18  24028631.474 6 126271313.57406        40.250    24028631.202 3        23.750    24028631.132 3  98393230.89903        23.750
G20  21207355.947 7 111445422.74907        47.750    21207355.071 6        38.250    21207353.995 6  86840582.19506        38.250
G21  23460506.930 7 123285806.52907        44.750    23460506.063 5        32.000    23460504.883 5  96066853.76005        32.000
G26  23436988.207 7 123162206.01207        44.000    23436987.926 5        31.250    23436990.853 5  95970564.34105        31.250    23436991.580 6  95970561.34306        40.000    23436990.146 7  91971778.10507        44.250
G27  20268342.762 8 106510880.89608        50.250    20268342.454 7        45.250    20268343.162 7  82995500.03307        45.250    20268343.349 8  82995503.03508        48.750    20268343.912 9  79537361.68909        54.000
G30  25162937.261 6 132232131.50506        37.250    25162936.890 3        20.500    25162937.917 3 103038023.95703        20.500    25162938.245 5 103038024.95205        35.500    25162939.346 7  98744774.48407        42.750
R06  21680562.277 7 115691661.42407        44.750
R07  21337617.860 8 114221931.42708        52.000    21337619.024 7  88839301.80107        46.500    21337619.149 7  88839305.79907        45.750
R08  23689871.024 6 126858183.04006        38.500    23689871.219 6  98667473.99206        39.500    23689871.349 6  98667472.96506        39.000
R12  22569136.687 8 120560264.97008        48.250    22569139.961 6  93769097.23106        41.500    22569139.659 6  93769099.22506        41.750
R13  20772375.709 6 110923321.27506        38.750    20772378.261 7  86273698.34707        42.500    20772378.365 6  86273700.35206        39.500
R14  22506808.601 7 119973956.88107        46.000    22506810.315 6  93313080.14206        41.500    22506811.747 6  93313029.13406        41.000
R21  23540042.347 7 125967530.74007        44.000    23540043.969 6  97974754.24506        39.750    23540045.250 6  97974755.25206        38.750    23540027.388 6  94384300.40406        40.250
R22  19818021.094 8 105789951.28308        51.000    19818023.218 8  82281101.19008        49.000    19818023.799 8  82281108.18908        48.750
R23  20802013.963 8 111276761.31008        50.500    20802017.580 6  86548615.14606        41.000    20802016.903 6  86548613.12706        41.500
> 2020 01 13 00 12  0.0000000  0 33
E02  27154341.477 6 142697028.19106        41.000    27154343.440 6 106559477.02706        41.250    27154340.080 7 109339272.86807        42.000    27154341.070 7 107949381.45407        44.500
E04  28634191.932 6 150473693.25706        38.750    28634194.787 5 112366730.13105        35.250    28634191.489 6 115298023.59206        36.000    28634192.722 6 113832382.37206        38.750
E11  23864029.596 7 125406344.88407        46.250    23864029.134 7  93647600.69307        46.750    23864025.983 7  96090568.38907        47.500    23864027.121 8  94869083.04608        50.000
E12  21981116.706 7 115511567.37407        45.500    21981117.053 7  86258646.39207        47.750    21981113.942 8  88508865.84208        48.750    21981115.143 8  87383762.12208        51.250
E14  23665940.198 7 124365359.47907        44.000    23665942.885 7  92870253.11907        42.750    23665939.454 7  95292928.54907        42.500    23665940.708 7  94081594.34207        45.750
E19  26599864.212 6 139783240.09206        41.250    26599866.386 6 104383606.69006        38.500    26599863.570 6 107106641.30306        41.000    26599864.608 7 105745120.99907        42.750
E20  21795542.998 6 114536356.40106        36.500
E24  23965192.927 7 125937939.17207        43.750    23965208.202 7  94044623.45307        45.500    23965204.789 7  96497938.90307        46.750    23965205.930 8  95271274.68308        49.250
E25  24804289.928 7 130347420.74907        47.750    24804293.664 8  97337368.84208        48.750    24804290.164 8  99876590.17008        49.500    24804291.494 8  98606979.01308        52.000
E33  27630721.428 7 145200435.88007        43.250    27630723.589 6 108428913.93606        41.000    27630720.188 6 111257478.22506        41.750    27630721.588 7 109843204.08807        44.500
E36  27997460.035 5 147127639.50505        34.500    27997464.890 6 109868061.49706        39.250    27997462.571 6 112734173.40906        39.750    27997463.165 7 111301119.46107        42.500
G07  24365751.458 7 128042881.04407        44.250    24365751.239 4        26.000    24365749.252 4  99773665.96804        26.000    24365749.467 5  99773663.98805        35.000
G08  21728856.008 8 114185928.50408        49.500    21728855.597 6        40.000    21728856.726 6  88976057.25906        40.000    21728857.271 7  88976046.27507        45.000    21728856.894 8  85268724.45408        50.750
G10  21448662.984 8 112713487.93208        51.500    21448662.953 7        44.000    21448663.820 7  87828703.93507        44.000    21448663.561 7  87828698.93907        46.750    21448663.068 8  84169170.72408        52.000
G11  25117545.787 6 131993587.10306        38.250    25117545.349 3        18.250    25117545.163 3 102852145.21403        18.250
G13  25376429.966 5 133354035.93605        34.250    25376429.689 1         8.250    25376428.017 1 103912223.31501         8.250
G15  24603163.042 6 129290508.04606        41.750    24603163.038 3        23.000    24603161.278 3 100745844.51303        23.000    24603161.416 5 100745839.50705        35.000
G16  21688738.336 7 113975090.68107        46.750    21688737.724 6        36.250    21688736.834 6  88811752.23606        36.250
G18  24007712.109 6 126161381.98506        39.500    24007711.828 3        22.750    24007711.853 3  98307569.91003        22.750
G20  21211495.367 8 111467174.59708        48.000    21211494.509 6        38.500    21211493.112 6  86857531.69106        38.500
G21  23475562.227 7 123364921.16307        45.000    23475561.356 5        32.000    23475559.839 5  96128501.52005        32.000
G26  23457623.129 7 123270644.08307        44.500    23457622.866 5        30.750    23457625.875 5  96055061.53505        30.750    23457625.996 6  96055058.54006        40.000    23457625.309 7  92052754.58307        44.000
G27  20266095.495 8 106499071.13408        50.500    20266095.187 7        45.250    20266095.827 7  82986297.61607        45.250    20266096.186 8  82986300.61908        49.000    20266096.519 8  79528542.70308        53.750
G30  25156346.918 6 132197496.69406        39.000    25156346.534 3        21.000    25156347.268 3 103011035.78203        21.000    25156347.360 5 103011036.77105        35.500    25156348.024 7  98718910.81407        42.250
R06  21687925.900 7 115730955.22307        44.750
R07  21323468.658 8 114146190.70508        51.750    21323469.969 7  88780392.36707        46.250    21323469.974 7  88780396.35407        45.750
R08  23665051.806 6 126725283.57206        38.250    23665052.730 6  98564107.78106        39.500    23665052.985 6  98564106.77106        39.000
R12  22592940.362 7 120687418.86907        47.750    22592943.409 6  93867994.73306        41.500    22592943.858 6  93867996.72506        41.000    22593028.600 5  90587288.20915        35.750
R13  20779271.131 6 110960145.18406        38.500    20779274.044 7  86302339.12707        42.750    20779274.274 6  86302341.12606        39.250
R14  22491761.796 7 119893748.98807        47.500    22491763.583 6  93250696.21406        41.000    22491764.183 6  93250645.19606        40.750
R21  23559077.789 7 126069396.17407        43.500    23559080.015 6  98053982.90406        40.250    23559080.607 6  98053983.89006        40.250    23559063.626 6  94460625.62806        40.500
R22  19825428.345 8 105829489.32308        51.000    19825429.920 8  82311852.99708        49.000    19825430.570 8  82311859.99408        48.500
R23  20788486.363 8 111204396.64508        51.000    20788489.603 6  86492331.49806        41.000    20788489.398 6  86492329.49106        41.750
> 2020 01 13 00 12 30.0000000  0 33
E02  27141521.615 6 142629661.17706        40.500    27141523.633 6 106509170.46906        41.000    27141521.218 7 109287654.00007        43.250    27141521.930 7 107898418.74407        45.250
E04  28617169.960 6 150384241.18706        39.250    28617172.547 5 112299931.50205        35.000    28617169.614 6 115229482.39706        36.250    28617170.797 6 113764712.45106        38.750
E11  23856267.108 7 125365553.04107        45.750    23856266.727 7  93617139.25907        47.000    23856263.425 7  96059312.30207        47.250    23856264.671 8  94838224.28508        50.250
E12  21987702.772 7 115546176.88107        44.750    21987702.968 8  86284491.15008        48.250    21987699.943 8  88535384.81108        48.750    21987701.136 8  87409943.98608        51.500
E14  23704174.725 7 124566283.23807        44.000    23704177.385 7  93020293.56307        42.250    23704173.866 7  95446883.09107        42.250    23704175.227 7  94233591.83307        45.250
E19  26588716.350 6 139724657.86206        40.250    26588718.684 6 104339860.23506        38.250    26588715.524 6 107061753.65006        40.750    26588716.791 7 105700803.94907        42.500
E20  21796502.175 6 114541395.82706        36.750
E24  23981263.193 7 126022389.62807        43.500    23981278.520 7  94107687.09807        45.000    23981275.082 7  96562647.68407        46.500    23981276.280 8  95335160.89508        48.750
E25  24806137.276 7 130357128.74607        47.250    24806141.008 8  97344618.31108        49.000    24806137.541 8  99884028.75308        49.500    24806138.886 8  98614323.04008        52.250
E33  27645182.955 7 145276431.95507        42.250    27645185.174 6 108485664.20806        41.000    27645181.988 7 111315708.94907        42.000    27645183.137 7 109900694.58507        44.500
E36  27982854.754 6 147050896.81206        40.250    27982860.891 6 109810753.61006        38.750    27982857.942 6 112675370.52806        39.500    27982858.966 7 111243064.07407        42.000
G07  24367967.954 7 128054528.19007        45.500    24367967.740 4        26.750    24367965.683 4  99782741.66204        26.750    24367965.403 6  99782739.65806        36.500
G08  21715343.273 8 114114919.58008        49.500    21715342.844 6        40.000    21715344.203 6  88920725.63906        40.000    21715345.089 7  88920714.65407        44.750    21715344.188 8  85215698.31908        50.750
G10  21439733.298 8 112666561.52008        51.250    21439733.272 7        43.750    21439733.972 7  87792137.91407        43.750    21439733.829 7  87792132.91507        46.750    21439733.259 8  84134128.29008        52.000
G11  25097108.732 6 131886188.29706        38.500    25097108.330 3        18.500    25097107.630 3 102768457.85503        18.500
G13  25380640.077 5 133376160.79805        34.250    25380639.751 1         8.250    25380638.152 1 103929463.48301         8.250
G15  24604763.262 6 129298916.85706        41.500    24604763.275 4        24.000    24604761.614 4 100752396.84404        24.000    24604761.963 6 100752391.82606        36.000
G16  21704488.432 7 114057857.37007        46.250    21704487.820 6        36.000    21704486.863 6  88876245.76506        36.000
G18  23986816.304 6 126051576.26706        39.500    23986816.027 3        23.000    23986816.622 3  98222007.00203        23.000
G20  21215744.767 8 111489506.77108        48.250    21215743.909 6        38.250    21215742.794 6  86874933.39106        38.250
G21  23490634.057 7 123444123.58707        45.000    23490633.190 5        32.250    23490631.667 5  96190217.68605        32.250
G26  23478289.868 7 123379247.59607        44.250    23478289.569 5        30.750    23478292.341 5  96139687.64005        30.750    23478291.888 6  96139684.64806        40.250    23478291.799 7  92133854.59907        43.750
G27  20263928.799 8 106487684.49208        50.500    20263928.495 7        45.000    20263928.960 7  82977424.90907        45.000    20263929.370 8  82977427.90908        48.750    20263929.674 8  79520039.68508        53.750
G30  25149854.194 6 132163377.12006        39.250    25149853.783 3        21.250    25149854.316 3 102984449.09603        21.250    25149853.973 5 102984450.11105        35.750    25149855.669 7  98693431.91707        43.000
R06  21695436.511 7 115771031.98707        45.000
R07  21309440.789 8 114071098.30908        51.750    21309441.979 7  88721987.18307        46.500    21309441.735 7  88721991.17407        46.000
R08  23640246.039 6 126592438.83306        40.000    23640244.861 6  98460784.07606        38.750    23640244.830 6  98460783.05706        39.000
R12  22616787.904 8 120814807.69708        48.500    22616790.760 6  93967074.96306        41.750    22616791.116 6  93967076.94406        41.500
R13  20786318.585 6 110997774.82306        38.500    20786320.946 7  86331606.60907        42.250    20786320.845 6  86331608.61206        39.250
R14  22476832.637 7 119814167.94007        46.500    22476835.093 7  93188799.84007        42.250    22476835.350 7  93188748.84007        42.250
R21  23578124.804 7 126171317.75707        45.000    23578127.495 6  98133255.20506        40.250    23578126.767 6  98133256.20606        40.500    23578109.532 6  94536992.94306        39.750
R22  19832901.578 8 105869381.19908        51.250    19832903.074 8  82342880.00008        49.250    19832903.385 8  82342887.00908        48.500
R23  20775008.447 8 111132301.83308        50.750    20775012.535 6  86436257.76906        41.000    20775011.262 6  86436255.77106        41.750
> 2020 01 13 00 13  0.0000000  0 33
E02  27128759.143 7 142562591.27707        43.000    27128761.188 7 106459085.78107        42.250    27128758.617 7 109236262.79607        43.250    27128759.503 7 107847680.79707        45.750
E04  28600136.111 6 150294728.58506        39.750    28600138.892 5 112233087.65805        34.500    28600135.944 5 115160894.80505        35.750    28600136.961 6 113696996.73906        38.250
E11  23848543.089 7 125324963.13207        45.500    23848542.662 7  93586828.62807        47.000    23848539.321 7  96028210.96407        47.000    23848540.645 8  94807518.29908        50.250
E12  21994325.081 7 115580976.72007        44.750    21994325.150 8  86310478.03608        48.000    21994322.148 8  88562049.62108        48.750    21994323.363 8  87436269.83408        51.500
E14  23742420.696 7 124767267.46707        44.250    23742423.408 7  93170379.16807        42.250    23742419.869 7  95600883.95907        42.000    23742421.270 7  94385635.07007        45.250
E19  26577627.584 6 139666387.09106        40.750    26577630.079 6 104296346.36006        38.750    26577626.956 6 107017104.61206        40.750    26577628.200 7 105656722.49007        42.750
E20  21797545.182 6 114546878.83706        36.500
E24  23997376.176 7 126107063.12407        42.750    23997391.398 7  94170917.30007        45.250    23997387.900 7  96627527.36707        46.500    23997389.092 8  95399215.84008        48.750
E25  24808071.865 7 130367295.25207        47.250    24808075.575 8  97352210.17208        49.000    24808072.196 8  99891818.66608        49.500    24808073.520 8  98622013.92908        52.250
E33  27659648.777 7 145352448.34107        42.000    27659650.718 6 108542429.67006        41.000    27659647.627 6 111373955.24106        41.750    27659648.483 7 109958200.45807        44.500
E36  27968262.514 6 146974205.56006        41.500    27968267.432 6 109753484.11806        39.750    27968263.466 6 112616607.02806        38.750    27968265.334 7 111185047.58007        42.250
G07  24370285.711 7 128066708.38807        46.000    24370285.510 4        26.750    24370283.526 4  99792232.70604        26.750    24370283.902 6  99792230.71506        36.250
G08  21701879.999 8 114044168.89308        49.250    21701879.575 6        40.500    21701881.019 6  88865595.24406        40.500    21701881.280 7  88865584.24507        45.250    21701880.751 8  85162865.02608        50.500
G10  21430905.692 8 112620173.23508        51.250    21430905.661 7        44.000    21430906.564 7  87755991.21507        44.000    21430906.160 7  87755986.21907        46.750    21430905.834 8  84099487.71308        52.000
G11  25076676.579 6 131778818.00906        39.500    25076676.173 3        19.250    25076675.468 3 102684792.71703        19.250
G13  25384956.612 5 133398842.84005        35.750    25384956.398 1         9.250    25384954.377 1 103947137.72501         9.250
G15  24606475.041 6 129307912.32606        41.500    24606475.072 3        23.750    24606473.516 3 100759406.29403        23.750    24606473.412 6 100759401.29906        36.000
G16  21720316.680 7 114141035.48107        46.250    21720316.072 5        35.750    21720315.030 5  88941059.88005        35.750
G18  23965945.325 6 125941900.48006        39.500    23965945.026 4        24.500    23965946.227 4  98136545.32404        24.500
G20  21220105.318 7 111512420.84107        47.750    21220104.451 6        38.500    21220103.315 6  86892788.51706        38.500
G21  23505722.948 7 123523415.49207        45.000    23505722.103 5        32.250    23505720.366 5  96252003.58005        32.250
G26  23498987.927 7 123488016.75907        44.000    23498987.619 5        30.250    23498990.423 5  96224442.83505        30.250    23498990.421 6  96224439.85506        40.500    23498989.809 7  92215078.33307        43.750
G27  20261842.963 8 106476724.33208        50.500    20261842.655 7        45.250    20261843.292 7  82968884.51907        45.250    20261843.753 8  82968887.52008        49.000    20261844.005 8  79511855.14808        53.750
G30  25143459.866 6 132129776.44906        38.500    25143459.464 3        21.500    25143460.477 3 102958266.75203        21.500    25143460.631 6 102958267.76206        36.500    25143461.324 7  98668340.50607        43.000
R06  21703093.787 7 115811892.50607        44.750
R07  21295535.017 8 113996660.96708        51.500    21295536.320 7  88664091.47407        46.250    21295536.664 7  88664095.46707        45.750
R08  23615448.503 6 126459656.07806        38.750    23615449.070 6  98357508.61506        39.750    23615448.935 6  98357507.61306        40.250
R12  22640678.827 8 120942429.81608        48.000    22640682.219 7  94066336.61607        42.750    22640682.478 6  94066338.60706        41.500
R13  20793516.546 6 111036211.31706        38.500    20793518.917 7  86361501.61607        42.250    20793519.247 6  86361503.61606        39.250
R14  22462022.245 7 119735220.07207        46.500    22462025.084 7  93127395.96607        42.750    22462025.201 7  93127344.96007        42.750
R21  23597181.448 7 126273297.42107        44.750    23597185.098 6  98212572.72506        40.250    23597184.044 6  98212573.72806        41.000    23597166.510 6  94613403.78606        40.000
R22  19840441.022 8 105909629.00508        51.000    19840442.824 8  82374183.85708        49.250    19840442.915 8  82374190.85608        48.250
R23  20761582.674 8 111060480.18508        51.250    20761586.206 7  86380396.51507        42.000    20761585.806 7  86380394.50907        42.000
> 2020 01 13 00 13 30.0000000  0 33
E02  27116052.551 7 142495817.06207        43.000    27116054.840 7 106409221.91007        43.000    27116051.169 6 109185098.12406        41.000    27116052.851 7 107797166.53207        45.000
E04  28583090.938 6 150205154.01806        40.500    28583093.559 5 112166197.56405        35.000    28583090.150 5 115092259.75905        35.750    28583091.551 6 113629234.17306        38.250
E11  23840857.052 7 125284572.10507        45.500    23840856.529 7  93556666.50707        47.000    23840853.115 7  95997261.99807        47.250    23840854.440 8  94776962.75508        50.250
E12  22000982.773 7 115615963.29207        44.750    22000982.908 7  86336604.37007        47.750    22000979.917 8  88588857.50908        48.750    22000981.100 8  87462736.94508        51.250
E14  23780676.638 7 124968305.21807        43.750    23780679.731 7  93320504.71707        42.250    23780676.128 7  95754925.84007        42.000    23780677.521 7  94537718.78607        45.000
E19  26566598.280 6 139608426.30306        41.000    26566600.545 6 104253063.98106        39.000    26566597.547 6 106972693.13106        40.750    26566598.576 7 105612875.55907        43.000
E20  21798672.316 6 114552802.21906        36.250
E24  24013530.409 7 126191954.71307        42.750    24013545.719 7  94234310.35107        45.250    24013542.146 7  96692574.15507        46.000    24013543.415 8  95463435.75908        48.500
E25  24810093.177 7 130377917.02407        47.000    24810096.872 8  97360141.99908        48.750    24810093.523 8  99899957.41108        49.500    24810094.783 8  98630049.21408        52.250
E33  27674117.077 7 145428481.57307        42.500    27674119.607 6 108599207.68906        41.000    27674115.926 6 111432214.42906        41.750    27674117.111 7 110015719.06207        44.250
E36  27953676.888 6 146897562.61706        36.000    27953682.923 6 109696250.80906        39.250    27953678.569 6 112557880.68206        38.500    27953680.390 7 111127067.74607        42.000
G07  24372704.222 7 128079417.83807        45.750    24372704.030 4        26.500    24372702.298 4  99802136.16404        26.500    24372701.578 5  99802134.18405        35.000
G08  21688465.462 8 113973674.79208        49.250    21688465.020 6        40.750    21688466.469 6  88810664.77906        40.750    21688466.573 7  88810653.78307        45.250    21688466.221 8  85110223.32708        50.500
G10  21422180.463 8 112574321.44108        51.250    21422180.437 7        44.000    21422181.230 7  87720262.56807        44.000    21422181.265 7  87720257.57307        46.750    21422180.473 8  84065247.76308        51.750
G11  25056249.557 6 131671474.49606        39.250    25056249.146 3        19.000    25056248.707 3 102601148.40903        19.000
G13  25389377.857 5 133422078.53605        34.500    25389377.544 1        10.000    25389375.949 1 103965243.49401        10.000
G15  24608297.595 6 129317491.46506        40.000    24608297.626 3        23.500    24608296.494 3 100766870.58603        23.500    24608296.650 6 100766865.58006        36.750
G16  21736222.417 7 114224619.65507        46.250    21736221.814 5        35.500    21736220.412 5  89006190.41105        35.500
G18  23945099.698 6 125832352.81906        39.000    23945099.448 4        25.000    23945100.118 4  98051183.51004        25.000
G20  21224575.764 7 111535912.79507        47.500    21224574.897 6        38.750    21224573.735 6  86911093.94006        38.750
G21  23520827.888 7 123602792.82707        45.500    23520827.043 5        32.500    23520825.435 5  96313856.03905        32.500
G26  23519716.673 7 123596946.01307        43.500    23519716.401 5        30.250    23519719.125 5  96309322.77505        30.250    23519718.987 6  96309319.79006        40.000    23519718.325 7  92296421.60707        43.500
G27  20259837.957 8 106466188.21208        50.250    20259837.653 7        45.500    20259838.418 7  82960674.55207        45.500    20259838.805 8  82960677.55208        49.000    20259839.021 8  79503987.26008        53.500
G30  25137164.777 6 132096692.63606        40.500    25137164.371 4        24.000    25137165.148 4 102932487.17704        24.000    25137165.639 6 102932488.16806        37.250    25137165.584 7  98643635.03807        42.750
R06  21710897.123 7 115853532.40507        45.500
R07  21281751.781 8 113922878.78408        51.750    21281753.183 7  88606705.34607        46.500    21281753.619 7  88606709.34007        46.250
R08  23590663.072 6 126326935.36306        39.500    23590664.118 6  98254281.41406        39.750    23590664.620 6  98254280.38906        40.000
R12  22664612.062 8 121070277.87108        48.000    22664615.725 7  94165773.98307        43.000    22664615.731 7  94165775.99007        42.750
R13  20800865.131 6 111075449.51906        38.750    20800867.053 7  86392020.16407        42.250    20800867.495 6  86392022.16806        39.500
R14  22447330.672 8 119656905.31408        48.500    22447333.089 7  93066484.48107        42.000    22447333.195 7  93066433.48007        42.000
R21  23616248.564 7 126375331.38307        44.000    23616252.334 6  98291932.45806        40.000    23616251.930 6  98291933.44306        40.250    23616234.327 6  94689855.30306        40.000
R22  19848046.751 8 105950228.83008        51.250    19848048.674 8  82405761.50208        49.250    19848048.819 8  82405768.49208        48.500
R23  20748207.003 8 110988929.32008        51.250    20748210.291 6  86324745.85306        41.500    20748209.799 6  86324743.85006        41.250
> 2020 01 13 00 14  0.0000000  0 33
E02  27103401.504 6 142429335.89706        40.750    27103403.855 7 106359576.91207        43.500    27103399.005 6 109134157.97506        40.000    27103401.133 7 107746873.95607        45.000
E04  28566033.216 6 150115515.04206        39.250    28566036.194 5 112099259.38505        35.500    28566032.463 5 115023575.34905        35.500    28566033.738 6 113561422.87206        38.500
E11  23833207.772 7 125244375.77807        45.750    23833207.396 7  93526649.78007        47.000    23833204.079 7  95966462.22307        47.250    23833205.318 8  94746554.50508        50.250
E12  22007675.007 7 115651131.70007        44.750    22007675.158 8  86362866.49308        48.000    22007672.368 8  88615804.73308        49.000    22007673.428 8  87489341.61808        51.500
E14  23818941.817 7 125169388.37407        43.250    23818944.515 7  93470664.18707        42.000    23818940.969 6  95909002.52006        41.750    23818942.398 7  94689836.86107        44.750
E19  26555627.076 6 139550772.99106        40.750    26555629.463 6 104210011.19906        38.750    26555626.457 6 106928517.23506        41.000    26555627.548 7 105569261.22307        43.000
E20  21799882.858 6 114559161.64706        36.500
E24  24029725.217 7 126277058.40207        42.750    24029740.467 7  94297861.80607        45.000    24029736.776 7  96757783.47107        46.000    24029738.143 8  95527816.14408        48.500
E25  24812200.031 7 130388989.64307        47.250    24812203.937 8  97368410.49808        49.000    24812200.682 8  99908441.61308        49.750    24812201.852 8  98638425.56408        52.250
E33  27688587.796 7 145504527.02107        42.750    27688590.559 6 108655994.83206        41.000    27688586.750 6 111490483.00406        41.250    27688588.091 7 110073246.92207        44.000
E36  27939100.907 6 146820964.13306        38.000    27939105.674 6 109639050.63806        38.500    27939103.802 6 112499188.34906        39.750    27939104.417 7 111069121.50007        42.250
G07  24375222.575 7 128092651.33107        45.000    24375222.383 4        26.000    24375220.801 4  99812447.96804        26.000    24375220.540 6  99812445.99106        36.500
G08  21675099.004 8 113903434.21308        49.000    21675098.571 6        40.250    21675100.110 6  88755931.86506        40.250    21675100.828 7  88755920.88007        45.000    21675099.831 8  85057770.96108        50.750
G10  21413556.763 8 112529003.32008        51.250    21413556.732 7        44.000    21413557.434 7  87684949.76407        44.000    21413557.559 7  87684944.76607        46.500    21413556.703 8  84031406.33308        52.000
G11  25035827.716 6 131564154.27406        39.500    25035827.287 3        19.250    25035826.682 3 102517522.25603        19.250
G13  25393903.959 5 133445862.52905        34.500    25393903.593 1         9.500    25393902.063 1 103983776.47001         9.500
G15  24610230.779 7 129327649.77707        42.000    24610230.828 4        24.000    24610229.326 4 100774786.17404        24.000    24610229.045 6 100774781.16406        36.500
G16  21752204.047 7 114308603.64607        46.750    21752203.439 5        35.750    21752202.076 5  89071632.48805        35.750
G18  23924276.942 6 125722930.27206        40.000    23924276.665 4        25.250    23924277.600 4  97965919.17604        25.250
G20  21229155.218 7 111559977.30007        47.500    21229154.360 6        38.500    21229153.021 6  86929845.51306        38.500
G21  23535948.250 7 123682250.09607        45.750    23535947.414 5        32.250    23535945.802 5  96375770.79505        32.250
G26  23540474.239 7 123706028.61707        44.000    23540473.935 5        30.250    23540476.885 5  96394322.20105        30.250    23540476.805 6  96394319.21206        40.250    23540476.038 7  92377879.39807        43.500
G27  20257913.034 8 106456072.51708        50.500    20257912.730 7        45.500    20257913.559 7  82952792.18607        45.500    20257913.722 8  82952795.18608        49.000    20257914.039 8  79496433.33008        53.750
G30  25130966.833 6 132064122.38606        39.750    25130966.427 3        22.500    25130966.960 3 102907107.73003        22.500    25130967.147 6 102907108.72006        36.750    25130967.903 7  98619313.10007        43.250
R06  21718845.059 7 115895944.44707        45.250
R07  21268090.722 8 113849751.34508        51.250    21268092.519 7  88549828.45807        46.500    21268092.620 7  88549832.45807        46.250
R08  23565889.989 6 126194277.14306        38.000    23565891.253 6  98151102.80306        39.750    23565890.379 6  98151101.80606        39.250
R12  22688585.946 7 121198342.95407        47.000    22688589.847 7  94265380.16207        42.750    22688589.510 7  94265382.15707        42.250
R13  20808361.731 6 111115482.60906        38.500    20808363.966 7  86423156.97007        42.250    20808364.045 6  86423158.96706        39.000
R14  22432757.330 8 119579222.96608        48.000    22432760.183 7  93006064.84007        42.250    22432759.745 7  93006013.85307        42.000
R21  23635326.165 7 126477414.41907        44.000    23635328.768 6  98371330.34106        40.000    23635328.014 6  98371331.32906        40.250    23635311.087 6  94766343.55106        39.750
R22  19855717.683 8 105991175.38808        51.750    19855719.416 8  82437608.81208        49.250    19855719.567 8  82437615.81708        48.750
R23  20734881.455 8 110917645.56108        51.000    20734884.493 6  86269302.93606        41.250    20734884.145 6  86269300.92106        41.750
> 2020 01 13 00 14 30.0000000  0 33
E02  27090807.032 6 142363153.62806        41.500    27090809.091 7 106310155.09207        42.000    27090805.805 7 109083446.88707        42.250    27090806.852 7 107696807.49507        45.000
E04  28548964.011 6 150025817.47006        40.000    28548966.891 6 112032277.45906        36.250    28548963.642 6 114954846.06706        36.250    28548964.785 6 113493567.26406        39.250
E11  23825596.568 7 125204378.21907        45.500    23825596.154 7  93496781.47707        47.000    23825592.847 7  95935814.74507        47.250    23825594.058 8  94716296.61508        50.000
E12  22014402.786 7 115686485.55707        44.500    22014402.781 7  86389267.09407        47.500    22014399.960 8  88642894.05008        48.750    22014401.034 8  87516086.57808        51.250
E14  23857215.345 7 125370517.22907        43.250    23857218.124 7  93620857.77907        42.000    23857214.506 6  96063114.19906        41.500    23857215.959 7  94841989.49607        44.750
E19  26544715.507 6 139493432.96706        40.750    26544717.939 6 104167192.35106        39.250    26544714.887 6 106884581.37206        40.750    26544716.056 7 105525883.86607        43.000
E20  21801176.447 6 114565961.05806        36.250
E24  24045960.837 7 126362376.51707        42.750    24045976.005 7  94361573.36507        45.500    24045972.346 7  96823157.07407        45.750    24045973.723 8  95592358.72508        48.500
E25  24814393.748 7 130400517.11307        47.250    24814397.588 8  97377018.65308        48.750    24814394.315 8  99917274.33008        49.750    24814395.442 8  98647145.99908        52.250
E33  27703062.089 6 145580588.42506        41.750    27703064.755 6 108712793.91806        41.000    27703060.635 6 111548763.79606        40.750    27703062.156 7 110130786.85707        43.750
E36  27924534.306 6 146744414.46906        40.750    27924540.820 6 109581886.89106        40.250    27924535.968 6 112440533.35906        39.750    27924537.037 7 111011212.12607        43.000
G07  24377841.246 7 128106412.18007        42.750    24377840.987 4        26.750    24377839.406 4  99823170.70604        26.750    24377839.589 6  99823168.71006        36.750
G08  21661782.024 8 113833453.10908        49.500    21661781.582 6        40.750    21661783.233 6  88701401.13706        40.750    21661783.463 7  88701390.13907        45.500    21661782.886 8  85005512.34408        50.750
G10  21405035.595 8 112484224.43308        51.250    21405035.560 7        44.000    21405036.292 7  87650057.14507        44.000    21405036.062 7  87650052.15007        46.500    21405035.490 8  83997967.57608        52.000
G11  25015410.524 6 131456862.40206        39.500    25015410.144 3        20.000    25015410.049 3 102433918.17803        20.000
G13  25398535.009 5 133470198.15805        33.750    25398534.562 1         9.250    25398532.839 1 104002739.27701         9.250
G15  24612275.033 7 129338391.33907        42.250    24612275.064 3        23.750    24612273.202 3 100783156.23603        23.750    24612273.295 5 100783151.21005        35.250
G16  21768261.865 7 114392988.80307        47.000    21768261.262 6        36.000    21768260.084 6  89137387.16006        36.000
G18  23903479.476 6 125613638.42306        40.750    23903479.159 4        25.000    23903479.909 4  97880756.68804        25.000
G20  21233843.846 7 111584617.41807        47.500    21233842.983 6        38.500    21233841.897 6  86949045.60906        38.500
G21  23551084.107 7 123761790.54207        45.250    23551083.267 5        32.250    23551081.913 5  96437750.35305        32.250
G26  23561261.652 7 123815266.24207        43.750    23561261.371 5        30.000    23561264.161 5  96479442.42905        30.000    23561264.125 6  96479439.42206        40.250    23561263.405 7  92459452.94707        43.750
G27  20256069.104 8 106446382.05108        50.250    20256068.796 7        45.500    20256069.627 7  82945241.17007        45.500    20256069.653 8  82945244.17308        49.000    20256069.960 8  79489196.94408        53.500
G30  25124867.775 6 132032070.85206        40.000    25124867.364 3        22.250    25124867.386 3 102882132.51203        22.250    25124868.391 6 102882133.52306        36.000    25124868.372 7  98595378.51607        43.500
R06  21726938.181 7 115939131.83007        44.250
R07  21254553.723 8 113777285.79708        50.750    21254555.308 7  88493466.38007        46.750    21254555.520 7  88493470.37507        46.500
R08  23541129.690 6 126061689.56606        38.750    23541131.785 6  98047979.11506        39.500    23541131.315 6  98047978.10006        40.250
R12  22712601.284 7 121326624.94507        46.750    22712604.047 6  94365155.02306        41.750    22712604.276 7  94365157.03507        42.000
R13  20816007.808 6 111156313.04206        38.250    20816010.132 7  86454913.95407        42.250    20816010.629 6  86454915.93806        38.750
R14  22418304.381 7 119502180.48507        47.000    22418307.631 7  92946142.93607        42.750    22418307.181 7  92946091.94207        42.750
R21  23654412.468 6 126579550.12206        39.500    23654415.334 6  98450769.15406        40.500    23654414.173 6  98450770.14906        40.250    23654397.483 6  94842871.23706        39.750
R22  19863453.946 8 106032472.04108        52.000    19863455.578 8  82469728.44008        49.500    19863455.776 8  82469735.43508        48.500
R23  20721606.188 8 110846634.11308        50.750    20721609.297 6  86214071.82406        41.000    20721609.251 6  86214069.81006        41.000
> 2020 01 13 00 15  0.0000000  0 33
E02  27078270.606 7 142297272.54207        43.250    27078272.092 6 106260958.15906        41.000    27078269.809 7 109032966.59207        43.250    27078270.578 7 107646968.88107        45.250
E04  28531884.717 6 149936063.88306        40.250    28531887.612 6 111965253.69006        36.000    28531884.130 6 114886073.84606        36.750    28531885.235 6 113425669.27306        39.250
E11  23818023.267 7 125164580.13807        45.500    23818022.851 7  93467062.14107        47.000    23818019.437 7  95905320.12907        47.250    23818020.766 8  94686189.63808        50.250
E12  22021165.573 7 115722024.90107        44.750    22021165.650 7  86415806.20707        47.500    22021162.890 8  88670125.48508        49.000    22021163.938 8  87542971.85108        51.250
E14  23895497.066 7 125571688.63207        43.500    23895499.763 6  93771083.12206        41.750    23895496.253 6  96217258.49806        41.750    23895497.614 7  94994174.31407        44.750
E19  26533864.403 6 139436408.46706        40.750    26533866.608 6 104124609.12406        39.000    26533863.535 6 106840887.28606        40.750    26533864.608 7 105482745.21207        43.000
E20  21802554.143 6 114573201.05906        36.250
E24  24062236.843 7 126447907.83307        43.000    24062252.091 7  94425444.13507        45.250    24062248.532 7  96888694.05207        46.000    24062249.875 8  95657062.60108        48.500
E25  24816674.010 7 130412499.86507        47.500    24816677.910 8  97385966.79808        48.750    24816674.588 8  99926455.90508        50.000    24816675.670 8  98656210.85608        52.500
E33  27717539.044 6 145656666.01906        41.750    27717541.762 6 108769605.08206        40.750    27717537.574 6 111607056.98706        40.500    27717539.406 7 110188339.04107        43.750
E36  27909976.610 6 146667914.36006        40.250    27909983.116 6 109524760.16906        40.000    27909977.725 6 112381916.37306        39.000    27909979.809 7 110953340.27307        42.500
G07  24380560.002 7 128120699.92707        42.500    24380559.734 4        26.750    24380558.049 4  99834304.00204        26.750    24380558.197 5  99834302.00705        35.250
G08  21648514.877 8 113763733.30208        49.000    21648514.435 6        40.500    21648516.032 6  88647074.01906        40.500    21648516.252 7  88647063.03407        45.250    21648515.645 8  84953448.86108        51.000
G10  21396617.511 8 112439986.78108        51.500    21396617.480 7        44.000    21396618.185 7  87615586.26707        44.000    21396617.830 7  87615581.27207        46.500    21396617.396 8  83964932.98908        52.000
G11  24994999.466 6 131349600.48706        39.000    24994999.046 3        19.750    24994998.661 3 102350337.44003        19.750
G13  25403271.217 5 133495085.31405        34.500    25403270.681 1         9.000    25403268.574 1 104022131.82801         9.000
G15  24614430.036 7 129349716.58507        42.250    24614430.044 4        24.500    24614428.166 4 100791981.12304        24.500    24614428.761 5 100791976.13505        35.500
G16  21784395.734 7 114477773.90407        46.500    21784395.122 6        36.000    21784394.266 6  89203453.48006        36.000
G18  23882706.782 6 125504478.79206        40.500    23882706.398 4        24.750    23882707.769 4  97795697.22104        24.750
G20  21238642.114 8 111609832.79208        48.000    21238641.251 6        38.750    21238640.172 6  86968693.95406        38.750
G21  23566236.141 7 123841413.49507        45.000    23566235.323 5        32.500    23566233.729 5  96499794.20505        32.500
G26  23582077.994 7 123924657.01707        43.250    23582077.713 5        30.000    23582080.552 5  96564681.98905        30.000    23582080.234 6  96564679.00406        40.250    23582079.691 7  92541140.86807        43.500
G27  20254306.311 8 106437118.07308        50.250    20254306.007 7        45.750    20254306.846 7  82938022.48407        45.750    20254306.773 8  82938025.49208        49.250    20254307.146 8  79482279.03708        53.750
G30  25118867.008 6 132000539.58306        39.750    25118866.597 3        22.250    25118866.741 3 102857562.67403        22.250    25118868.052 5 102857563.69705        35.250    25118868.485 7  98571832.43007        43.500
R06  21735176.639 7 115983092.63607        44.750
R07  21241141.184 8 113705486.77508        50.500    21241142.510 7  88437622.69707        47.000    21241142.725 7  88437626.69707        46.250
R08  23516386.053 6 125929177.17506        40.250    23516385.643 6  97944913.88406        39.750    23516385.578 6  97944912.86606        40.250
R12  22736655.990 7 121455120.31607        47.750    22736658.698 6  94465095.87906        41.000    22736658.894 6  94465097.89106        41.250
R13  20823803.217 6 111197939.53006        38.500    20823805.395 7  86487290.08707        42.500    20823805.336 6  86487292.09306        38.500
R14  22403972.454 8 119425781.87608        48.250    22403975.513 7  92886721.79007        43.000    22403975.222 7  92886670.79507        43.000
R21  23673509.475 7 126681738.30607        42.500    23673511.488 6  98530248.84906        39.750    23673511.429 6  98530249.84506        39.750    23673496.154 6  94919438.31106        40.000
R22  19871255.189 8 106074118.65608        51.500    19871257.419 8  82502120.23908        49.250    19871257.623 8  82502127.24308        48.500
R23  20708381.986 8 110775896.04908        50.250    20708386.087 6  86159053.32406        41.500    20708384.939 6  86159051.31706        41.500
> 2020 01 13 00 15 30.0000000  0 33
E02  27065791.623 7 142231694.52207        42.750    27065793.892 7 106211987.53707        42.500    27065790.722 7 108982718.51307        42.500    27065792.055 7 107597359.53307        45.500
E04  28514794.887 6 149846256.05006        41.000    28514797.675 5 111898189.42905        35.750    28514793.748 5 114817260.08505        35.500    28514795.320 6 113357730.26406        38.500
E11  23810488.019 7 125124981.74107        45.500    23810487.572 7  93437491.91607        47.250    23810484.040 7  95874978.50507        46.750    23810485.433 8  94656233.71508        50.000
E12  22027963.669 7 115757749.37207        45.000    22027963.779 7  86442483.57607        47.750    22027961.027 8  88697498.77908        48.750    22027962.048 8  87569997.18308        51.250
E14  23933786.176 7 125772899.07307        43.500    23933788.925 6  93921337.62706        41.750    23933785.396 6  96371432.67606        41.500    23933786.705 7  95146388.65607        44.750
E19  26523073.102 6 139379701.41806        41.000    26523075.473 6 104082262.99006        39.250    26523072.421 6 106797436.46306        41.000    26523073.599 7 105439846.73307        43.250
E20  21804015.825 6 114580881.67206        36.500
E24  24078553.221 7 126533650.77107        43.750    24078568.434 7  94489472.95507        45.250    24078564.978 7  96954393.18707        46.000    24078566.249 8  95721926.57708        48.750
E25  24819040.999 7 130424937.88807        47.500    24819044.800 8  97395254.92708        49.000    24819041.423 8  99935986.33808        49.500    24819042.558 8  98665620.13908        52.250
E33  27732019.246 7 145732759.64707        42.000    27732021.935 6 108826428.21806        41.000    27732018.053 6 111665362.47906        40.250    27732019.633 7 110245903.35307        43.750
E36  27895428.806 6 146591464.21106        38.000    27895435.102 6 109467670.79106        40.250    27895429.261 6 112323337.68606        39.000    27895431.935 7 110895506.24707        42.750
G07  24383379.131 7 128135513.72207        42.750    24383378.845 4        26.000    24383377.313 4  99845847.22204        26.000    24383376.547 6  99845845.22406        36.250
G08  21635297.777 8 113694276.72608        49.000    21635297.353 6        40.500    21635298.908 6  88592952.01706        40.500    21635299.420 7  88592941.03207        45.250    21635298.536 8  84901581.94308        51.000
G10  21388302.644 8 112396291.99908        51.250    21388302.604 7        43.750    21388303.342 7  87581538.40207        43.750    21388303.006 7  87581533.41007        46.750    21388302.540 8  83932303.78808        52.000
G11  24974594.207 6 131242369.51106        37.750    24974593.783 3        19.500    24974593.369 3 102266780.84803        19.500
G13  25408111.002 5 133520523.43605        34.000    25408110.609 1         9.500    25408109.351 1 104041953.76901         9.500
G15  24616696.458 7 129361626.05907        42.250    24616696.466 4        24.500    24616694.747 4 100801261.25304        24.500    24616694.894 5 100801256.25405        35.250
G16  21800605.553 7 114562957.33407        46.500    21800604.927 5        35.750    21800604.149 5  89269830.18605        35.750
G18  23861960.283 6 125395453.30806        38.750    23861959.948 4        24.000    23861960.925 4  97710742.31504        24.000
G20  21243549.751 7 111635622.67007        47.500    21243548.888 6        38.250    21243547.751 6  86988789.96606        38.250
G21  23581403.298 7 123921118.11407        45.250    23581402.476 5        32.000    23581401.093 5  96561901.68605        32.000
G26  23602923.145 7 124034198.69107        43.750    23602922.832 4        29.500    23602925.598 4  96650039.13304        29.500    23602925.185 6  96650036.12606        40.000    23602924.832 7  92622941.46207        43.750
G27  20252624.647 8 106428281.46708        50.000    20252624.343 7        45.500    20252625.373 7  82931136.81707        45.500    20252625.105 8  82931139.81708        49.250    20252625.646 8  79475680.26908        53.750
G30  25112966.063 6 131969529.76806        38.500    25112965.657 3        21.000    25112966.091 3 102833399.17703        21.000    25112967.226 6 102833400.18306        36.250    25112967.605 7  98548675.74507        43.250
R06  21743559.132 7 116027825.22907        44.500
R07  21227853.966 8 113634357.78608        51.250    21227855.348 7  88382300.16707        47.000    21227855.420 7  88382304.17707        47.000
R08  23491654.816 6 125796744.61506        40.000    23491654.623 6  97841910.76506        39.500    23491654.924 6  97841909.76406        39.250
R12  22760749.345 8 121583824.68208        48.000    22760752.328 6  94565199.29506        40.750    22760752.764 6  94565201.30806        40.750
R13  20831747.182 6 111240360.24106        38.750    20831749.465 7  86520283.95007        42.250    20831749.608 6  86520285.94306        38.750
R14  22389761.846 8 119350030.53208        48.000    22389764.092 7  92827804.06307        42.000    22389764.383 6  92827753.07606        41.750
R21  23692615.818 7 126783978.37507        46.000    23692617.828 6  98609768.92006        40.250    23692617.229 6  98609769.88906        40.500    23692602.906 6  94996044.29406        40.500
R22  19879122.873 8 106116114.92908        51.500    19879124.654 8  82534783.99708        49.250    19879124.920 8  82534791.00408        48.250
R23  20695209.621 8 110705432.74408        50.500    20695214.100 6  86104248.55106        41.750    20695212.572 7  86104246.54607        42.250
> 2020 01 13 00 16  0.0000000  0 33
E02  27053369.637 6 142166416.91606        41.750    27053372.195 7 106163241.28107        44.000    27053367.824 6 108932700.59306        41.000    27053369.887 7 107547977.45307        45.500
E04  28497694.209 6 149756391.70006        41.000    28497696.862 6 111831082.97206        36.000    28497693.049 6 114748403.01306        36.000    28497694.663 6 113289748.49706        38.750
E11  23802989.645 7 125085578.83207        45.500    23802989.387 7  93408067.67107        47.250    23802985.802 7  95844786.66507        46.750    23802987.265 8  94626425.67208        50.000
E12  22034796.029 7 115793654.13507        44.750    22034796.209 7  86469295.56907        47.500    22034793.543 8  88725010.21808        49.000    22034794.486 8  87597158.89708        51.250
E14  23972081.401 7 125974140.45407        42.750    23972083.886 6  94071615.22306        41.500    23972080.249 6  96525630.56806        41.250    23972081.716 7  95298626.39807        44.250
E19  26512342.224 6 139323309.18906        41.000    26512344.464 6 104040151.93206        39.250    26512341.243 6 106754226.83206        40.750    26512342.510 7 105397186.38707        43.000
E20  21805560.296 6 114588998.48406        36.250
E24  24094908.676 7 126619599.23007        43.000    24094923.736 7  94553655.22807        44.750    24094920.599 7  97020249.78507        46.250    24094921.673 8  95786946.01308        48.500
E25  24821493.660 7 130437826.68507        47.250    24821497.454 8  97404879.66108        49.000    24821494.005 8  99945862.15308        49.750    24821495.239 8  98675370.41208        52.500
E33  27746501.340 7 145808864.60507        42.000    27746504.100 6 108883259.81006        40.750    27746500.530 6 111723676.64906        40.750    27746502.011 7 110303476.23607        43.750
E36  27880889.754 6 146515060.02106        41.500    27880893.876 6 109410615.66106        39.250    27880892.271 6 112264794.17306        39.250    27880893.008 7 110837706.93207        42.250
G07  24386296.924 7 128150848.43907        44.750    24386296.607 4        26.750    24386295.535 4  99857796.33604        26.750    24386294.553 6  99857794.33806        36.750
G08  21622129.863 8 113625080.81208        49.750    21622129.430 6        41.000    21622131.348 6  88539033.12206        41.000    21622131.486 7  88539022.12307        45.500    21622130.908 8  84849909.66808        50.750
G10  21380090.457 8 112353137.12608        51.000    21380090.417 7        43.750    21380091.207 7  87547911.24207        43.750    21380090.980 7  87547906.24807        46.250    21380090.436 8  83900077.76108        52.000
G11  24954193.952 6 131135166.18306        38.750    24954193.555 3        20.500    24954193.219 3 102183245.80603        20.500
G13  25413056.223 5 133546506.77805        34.000    25413055.732 1         7.750    25413053.915 1 104062200.57201         7.750
G15  24619073.086 7 129374114.84407        42.500    24619073.094 3        23.500    24619070.994 3 100810992.78003        23.500    24619072.136 5 100810987.76605        34.500
G16  21816889.926 7 114648531.90007        46.500    21816889.296 6        36.000    21816888.305 6  89336511.67406        36.000
G18  23841238.057 6 125286558.77406        39.500    23841237.749 3        23.750    23841238.765 3  97625889.42503        23.750
G20  21248565.699 7 111661981.54507        47.750    21248564.832 6        38.500    21248563.610 6  87009329.35306        38.500
G21  23596585.190 7 124000899.85307        44.750    23596584.372 5        32.250    23596582.922 5  96624069.26205        32.250
G26  23623795.393 7 124143884.47107        44.000    23623795.004 4        29.000    23623798.001 4  96735508.57104        29.000    23623797.671 6  96735505.57606        39.250    23623797.371 7  92704849.68907        44.000
G27  20251023.688 8 106419868.50008        50.250    20251023.389 7        45.750    20251024.483 7  82924581.25407        45.750    20251024.212 8  82924584.25708        49.250    20251024.707 8  79469397.85808        53.500
G30  25107164.190 6 131939037.97206        38.500    25107163.788 3        20.500    25107163.637 3 102809639.34203        20.500    25107164.394 5 102809640.34205        35.250    25107165.318 7  98525905.91107        43.000
R06  21752085.479 7 116073323.54907        44.500
R07  21214691.570 8 113563897.85708        51.250    21214692.693 7  88327498.01907        47.000    21214692.711 7  88327502.01607        46.750
R08  23466938.413 6 125664391.50506        39.250    23466938.637 6  97738969.47306        39.750    23466938.229 6  97738968.45806        40.000
R12  22784880.254 7 121712729.41707        47.000    22784883.475 6  94665458.55806        40.750    22784883.699 6  94665460.54506        40.000
R13  20839839.422 6 111283568.41306        38.000    20839840.915 7  86553890.28107        42.000    20839840.913 6  86553892.29306        38.250
R14  22375672.021 8 119274925.36608        48.000    22375674.461 7  92769388.92107        42.250    22375674.821 6  92769337.94006        41.750
R21  23711730.246 7 126886265.43007        42.750    23711731.264 6  98689325.49706        39.500    23711732.502 6  98689326.46906        39.250    23711716.078 6  95072685.42406        40.500
R22  19887054.330 8 106158455.23608        50.750    19887056.386 8  82567715.35208        49.000    19887056.616 8  82567722.35508        48.500
R23  20682087.733 8 110635240.49808        50.500    20682091.883 6  86049654.61106        41.500    20682091.018 6  86049652.58406        41.250
> 2020 01 13 00 16 30.0000000  0 33
E02  27041006.891 7 142101449.72807        42.000    27041009.356 7 106114726.85107        43.750    27041004.502 6 108882920.53206        41.000    27041006.473 7 107498830.20207        45.500
E04  28480584.674 6 149666480.83206        40.750    28480587.231 5 111763941.77605        35.750    28480583.853 6 114679510.31006        36.250    28480585.149 6 113221731.55406        39.000
E11  23795530.591 7 125046379.75707        45.250    23795530.030 7  93378795.64007        47.250    23795526.443 7  95814751.01807        46.500    23795527.892 8  94596771.83308        50.000
E12  22041664.515 7 115829746.96107        44.500    22041664.512 7  86496248.00407        47.250    22041661.742 8  88752665.75708        48.500    22041662.710 8  87624462.88308        51.000
E14  24010382.976 7 126175417.50807        43.500    24010385.839 6  94221919.48106        41.500    24010382.109 6  96679855.80106        40.750    24010383.471 7  95450891.14507        44.250
E19  26501672.855 6 139267241.78706        41.500    26501675.376 6 103998283.42406        39.250    26501672.089 6 106711266.12206        40.500    26501673.228 7 105354771.77707        43.000
E20  21807189.488 6 114597559.57506        36.000
E24  24111304.286 7 126705759.75907        43.000    24111319.610 7  94617995.88507        44.750    24111316.342 7  97086268.88207        46.250    24111317.414 8  95852125.88808        48.500
E25  24824033.437 7 130451174.38907        47.500    24824037.476 8  97414847.08208        49.000    24824034.004 8  99956089.59908        49.250    24824035.228 8  98685467.84608        52.250
E33  27760987.523 7 145884988.94507        42.250    27760990.131 6 108940105.89006        40.500    27760986.457 6 111782005.66306        40.500    27760987.998 7 110361063.78307        43.500
E36  27866360.404 5 146438710.18605        34.750    27866369.012 6 109353601.21306        40.500    27866363.828 6 112206292.40406        40.750    27866363.629 7 110779948.80607        43.500
G07  24389315.926 7 128166711.34307        44.500    24389315.613 4        26.500    24389314.506 4  99870157.02804        26.500    24389313.651 5  99870154.99905        35.500
G08  21609014.047 8 113556154.64408        48.500    21609013.623 6        40.750    21609015.163 6  88485324.41706        40.750    21609015.095 7  88485313.42707        45.500    21609014.549 8  84798438.83408        50.500
G10  21371982.966 8 112310531.87008        51.000    21371982.931 7        43.750    21371983.627 7  87514712.35207        43.750    21371983.509 7  87514707.35807        46.250    21371982.897 8  83868262.16208        52.000
G11  24933801.114 6 131027999.79106        40.000    24933800.761 3        20.750    24933799.977 3 102099739.52203        20.750
G13  25418106.027 5 133573043.40205        33.250    25418105.433 1         4.500    25418103.450 1 104082878.50901         4.500
G15  24621561.025 6 129387191.29206        40.750    24621560.999 3        23.500    24621559.546 3 100821182.23203        23.500    24621559.392 5 100821177.21505        35.250
G16  21833249.631 7 114734503.55007        46.500    21833249.010 6        36.000    21833248.125 6  89403502.58006        36.000
G18  23820543.158 6 125177804.76706        39.750    23820542.850 4        24.000    23820543.425 4  97541146.04504        24.000
G20  21253691.344 7 111688916.85307        47.500    21253690.477 6        38.500    21253689.292 6  87030317.91106        38.500
G21  23611782.962 7 124080765.18707        44.750    23611782.171 5        32.250    23611780.863 5  96686301.98105        32.250
G26  23644696.738 7 124253720.30207        43.000    23644696.363 4        28.250    23644698.959 4  96821094.93404        28.250    23644699.526 6  96821091.95206        38.000    23644698.534 7  92786869.94607        44.000
G27  20249505.325 8 106411888.19708        50.000    20249505.035 7        45.750    20249505.875 7  82918362.83107        45.750    20249505.544 8  82918365.83608        49.000    20249506.151 8  79463438.53708        53.500
G30  25101461.623 6 131909073.54906        38.000    25101461.208 3        21.500    25101461.894 3 102786290.43203        21.500    25101462.098 5 102786291.44505        35.500    25101463.263 7  98503529.87507        43.250
R06  21760756.703 7 116119593.42907        44.250
R07  21201655.916 8 113494118.93508        51.000    21201657.609 7  88273225.53407        47.250    21201657.489 7  88273229.53407        46.750
R08  23442239.188 6 125532130.34106        39.500    23442240.091 6  97636099.68806        40.000    23442239.917 6  97636098.68706        39.750
R12  22809049.888 7 121841838.70607        47.500    22809053.006 6  94765876.89606        41.250    22809053.511 6  94765878.90606        41.000
R13  20848078.474 6 111327569.56906        38.500    20848081.083 7  86588113.33607        42.000    20848081.209 6  86588115.35406        38.500
R14  22361706.082 8 119200478.40508        49.500    22361708.819 7  92711485.73707        42.750    22361708.681 7  92711434.73607        42.500
R21  23730855.486 7 126988607.09307        45.250    23730855.687 6  98768924.57806        38.500    23730857.198 6  98768925.56006        37.500    23730840.135 6  95149367.52106        40.000
R22  19895052.121 8 106201147.50008        50.500    19895053.977 8  82600920.43308        49.000    19895054.323 8  82600927.44008        48.250
R23  20669018.539 8 110565328.57108        50.250    20669022.291 6  85995278.65706        41.000    20669021.741 6  85995276.65806        41.000
> 2020 01 13 00 17  0.0000000  0 33
E02  27028702.407 7 142036788.98507        42.750    27028704.168 7 106066441.23707        42.500    27028700.796 7 108833375.29307        42.250    27028701.971 7 107449914.77107        45.500
E04  28463465.245 6 149576519.68306        40.750    28463468.184 6 111696763.00606        36.250    28463464.797 6 114610579.05006        36.500    28463466.114 6 113153676.53306        39.250
E11  23788108.907 7 125007378.86807        45.250    23788108.363 7  93349671.62107        47.250    23788104.792 7  95784867.22907        46.750    23788106.273 8  94567267.92808        50.000
E12  22048567.312 7 115866021.69707        44.500    22048567.279 7  86523336.26807        47.250    22048564.568 8  88780460.67308        48.750    22048565.536 8  87651904.47508        51.000
E14  24048689.830 7 126376720.91007        43.000    24048692.589 6  94372243.40206        41.750    24048688.994 6  96834101.22206        41.000    24048690.305 7  95603175.81507        44.250
E19  26491064.807 6 139211495.23706        41.250    26491066.889 6 103956654.52606        39.500    26491063.817 6 106668551.22306        41.000    26491064.956 7 105312599.87607        43.250
E20  21808902.062 6 114606559.22806        36.000
E24  24127739.399 7 126792124.92207        43.000    24127754.317 7  94682489.33007        45.000    24127751.049 7  97152444.76007        46.250    24127752.071 8  95917460.55108        48.500
E25  24826659.788 7 130464975.15307        47.750    24826663.667 8  97425152.82808        49.000    24826660.202 8  99966664.18508        49.500    24826661.465 8  98695908.01108        52.250
E33  27775476.329 6 145961126.60906        41.750    27775478.579 6 108996961.90606        40.250    27775475.326 6 111840344.88106        41.000    27775476.515 7 110418661.40107        43.750
E36  27851842.050 5 146362409.52205        34.750    27851848.820 6 109296623.44006        41.250    27851841.002 6 112147828.24306        39.000    27851844.123 7 110722227.82707        43.000
G07  24392434.022 7 128183095.72107        45.750    24392433.741 4        26.750    24392432.144 4  99882924.07804        26.750    24392430.900 6  99882922.08506        36.250
G08  21595948.307 8 113487494.57908        49.000    21595947.878 6        40.750    21595949.556 6  88431823.06906        40.750    21595949.954 7  88431812.08207        45.750    21595949.045 8  84747166.70708        50.750
G10  21363979.185 8 112268471.91808        51.000    21363979.150 7        43.500    21363979.857 7  87481938.37307        43.500    21363979.772 7  87481933.37907        46.500    21363979.159 8  83836853.76708        52.000
G11  24913413.931 6 130920865.87706        40.250    24913413.529 3        20.500    24913412.920 3 102016258.50603        20.500
G13  25423260.134 5 133600126.49705        34.500    25423259.517 1        10.250    25423257.388 1 104103982.15301        10.250
G15  24624160.613 7 129400849.90607        42.500    24624160.614 4        24.500    24624158.649 4 100831825.30104        24.500    24624159.179 6 100831820.28806        36.250
G16  21849683.826 7 114820864.74707        47.250    21849683.196 5        35.750    21849682.174 5  89470797.03305        35.750
G18  23799874.008 6 125069187.09106        40.000    23799873.673 4        24.500    23799874.226 4  97456508.90104        24.500
G20  21258925.219 7 111716421.68107        47.000    21258924.356 6        38.250    21258923.304 6  87051750.25006        38.250
G21  23626995.617 7 124160707.87507        45.500    23626994.813 5        32.000    23626993.372 5  96748594.97005        32.000
G26  23665624.564 7 124363698.02707        42.250    23665624.158 4        27.750    23665626.783 4  96906791.86304        27.750    23665627.319 6  96906788.86306        39.250    23665626.573 7  92868996.16707        44.000
G27  20248068.058 8 106404335.56608        50.250    20248067.759 7        45.500    20248068.611 7  82912477.65807        45.500    20248068.404 8  82912480.66508        49.250    20248068.964 8  79457798.58308        53.750
G30  25095859.155 6 131879631.63006        39.250    25095858.735 3        21.500    25095859.188 3 102763348.67203        21.500    25095859.667 5 102763349.67605        35.750    25095860.879 7  98481544.01707        43.750
R06  21769570.740 7 116166627.68607        44.500
R07  21188747.352 8 113425018.76208        51.000    21188748.885 7  88219480.96807        47.000    21188749.118 7  88219484.97007        46.750
R08  23417556.431 6 125399959.77706        39.000    23417558.210 6  97533300.35806        40.000    23417557.268 6  97533299.35406        40.000
R12  22833256.035 7 121971142.24707        47.750    22833259.312 6  94866446.31806        41.750    22833259.774 6  94866448.31406        41.500
R13  20856465.757 6 111372355.93606        39.500    20856467.960 7  86622947.14707        42.000    20856468.674 6  86622949.14506        38.500
R14  22347863.121 8 119126686.90108        49.750    22347866.371 7  92654092.34307        43.000    22347865.638 7  92654041.34507        43.000
R21  23749989.739 7 127090997.21207        45.000    23749988.893 6  98848561.28206        37.000    23749991.003 5  98848562.31405        35.750    23749975.742 6  95226085.87506        40.250
R22  19903114.624 8 106244185.01508        51.000    19903116.308 8  82634394.05508        49.000    19903116.958 8  82634401.04808        48.000
R23  20656000.733 8 110495692.03908        50.000    20656004.785 6  85941116.91206        41.500    20656003.943 6  85941114.92806        41.750
> 2020 01 13 00 17 30.0000000  0 33
E02  27016454.779 7 141972428.09807        42.500    27016456.569 7 106018379.51807        42.000    27016453.631 7 108784059.80707        42.750    27016454.752 7 107401226.17107        45.500
E04  28446335.691 6 149486501.85706        40.500    28446338.719 6 111629541.92706        36.000    28446335.254 6 114541604.39006        36.750    28446336.334 6 113085578.66406        39.500
E11  23780723.382 7 124968568.07507        45.250    23780722.960 7  93320689.53907        47.250    23780719.364 7  95755129.10107        47.000    23780720.811 8  94537907.82308        50.000
E12  22055503.067 7 115902469.55507        44.500    22055503.068 7  86550553.82807        47.250    22055500.400 8  88808388.24808        48.750    22055501.309 8  87679477.04008        51.000
E14  24086999.088 7 126578038.81407        43.500    24087002.197 6  94522578.14006        41.500    24086998.402 6  96988357.74506        40.750    24086999.912 7  95755471.44707        44.000
E19  26480516.230 6 139156062.94806        41.000    26480518.443 6 103915260.29306        39.250    26480515.414 6 106626077.15706        41.250    26480516.524 7 105270665.72807        43.250
E20  21810696.704 5 114615989.16105        35.750
E24  24144211.072 7 126878684.65607        43.750    24144226.178 7  94747128.08207        44.750    24144222.647 7  97218769.73907        46.000    24144223.825 8  95982942.41508        48.250
E25  24829370.597 7 130479220.47507        47.750    24829374.443 8  97435790.54008        49.000    24829371.012 8  99977579.41308        49.500    24829372.270 8  98706684.48308        52.250
E33  27789965.624 7 146037269.09407        42.000    27789968.155 6 109053821.51706        40.750    27789964.656 6 111898687.79306        41.000    27789965.901 7 110476262.66307        44.000
E36  27837328.904 6 146286149.86706        39.000    27837332.570 6 109239676.30706        39.000    27837328.449 6 112089395.52206        38.000    27837332.635 6 110664537.92106        41.500
G07  24395649.372 7 128199992.33107        44.500    24395649.104 4        26.750    24395647.102 4  99896090.26804        26.750    24395647.075 6  99896088.27406        36.750
G08  21582932.025 8 113419093.67208        49.000    21582931.587 6        41.000    21582933.226 6  88378523.66606        41.000    21582933.417 7  88378512.67307        45.750    21582932.807 8  84696088.11508        50.750
G10  21356077.908 8 112226950.35908        50.750    21356077.877 7        43.500    21356078.540 7  87449583.92107        43.500    21356078.242 7  87449578.92307        46.250    21356077.778 8  83805847.41908        52.000
G11  24893031.732 6 130813756.92706        40.250    24893031.339 3        20.750    24893031.192 3 101932796.95403        20.750
G13  25428515.615 5 133627746.83205        32.250    25428515.106 1         7.250    25428513.418 1 104125504.50001         7.250
G15  24626868.981 7 129415081.86807        42.500    24626868.994 4        24.500    24626866.642 4 100842915.13304        24.500    24626866.891 6 100842910.12506        36.000
G16  21866190.020 7 114907605.13507        47.250    21866189.394 6        36.000    21866188.404 6  89538386.95006        36.000
G18  23779229.161 6 124960699.02006        41.500    23779228.848 4        25.500    23779229.527 4  97371972.74904        25.500
G20  21264265.829 7 111744486.64407        47.250    21264264.971 6        38.250    21264263.906 6  87073619.05306        38.250
G21  23642220.900 7 124240718.37607        45.250    23642220.082 5        31.750    23642218.916 5  96810940.81105        31.750
G26  23686577.948 7 124473806.96207        42.000    23686577.600 4        27.750    23686579.832 4  96992591.02804        27.750    23686579.893 6  96992588.03406        38.500    23686579.574 7  92951220.36207        44.250
G27  20246710.662 8 106397202.96008        50.250    20246710.363 7        45.750    20246711.245 7  82906919.78107        45.750    20246711.181 8  82906922.78508        49.250    20246711.665 8  79452472.28308        53.750
G30  25090354.280 6 131850704.91806        38.750    25090353.869 3        21.250    25090355.237 3 102740808.39203        21.250    25090355.119 6 102740809.38206        37.000    25090356.256 7  98459942.90007        43.500
R06  21778526.244 7 116214414.94107        44.750
R07  21175964.585 8 113356592.06608        51.000    21175966.349 7  88166260.22107        47.250    21175966.305 7  88166264.20807        46.500
R08  23392890.692 6 125267875.71806        39.000    23392892.471 6  97430568.32506        40.250    23392892.538 6  97430567.32606        40.750
R12  22857496.089 7 122100627.73807        47.750    22857499.272 7  94967157.26107        42.000    22857499.587 6  94967159.25606        41.750
R13  20864998.366 6 111417917.67906        39.500    20865000.294 7  86658384.04607        42.000    20865000.458 6  86658386.05006        38.750
R14  22334141.687 8 119053545.76408        48.250    22334144.620 7  92597204.80307        42.500    22334144.273 7  92597153.80107        42.250
R21  23769129.867 7 127193426.56407        43.500    23769133.076 6  98928228.47906        39.000    23769132.785 6  98928229.48006        39.500    23769114.778 6  95302833.62406        39.250
R22  19911240.267 8 106287558.70508        51.250    19911241.560 8  82668129.15108        49.000    19911242.313 8  82668136.14208        48.000
R23  20643033.241 8 110426323.42708        50.750    20643037.398 6  85887163.55806        41.750    20643036.458 7  85887161.56907        42.250
> 2020 01 13 00 18  0.0000000  0 33
E02  27004268.197 7 141908386.13007        42.250    27004270.135 7 105970555.96107        42.750    27004266.820 7 108734988.70407        42.500    27004268.306 7 107352778.84207        45.750
E04  28429199.124 6 149396446.50206        40.500    28429201.582 6 111562292.83206        36.250    28429198.352 6 114472600.97006        37.500    28429199.418 6 113017452.40706        40.000
E11  23773377.384 7 124929964.71907        45.250    23773377.053 7  93291862.37107        47.000    23773373.355 7  95725549.91907        46.750    23773374.861 8  94508704.64908        50.000
E12  22062474.938 7 115939107.40007        44.250    22062475.040 7  86577913.25307        47.000    22062472.267 8  88836461.39708        48.500    22062473.239 8  87707193.32808        50.750
E14  24125314.149 7 126779384.99407        43.500    24125317.179 6  94672933.99506        41.000    24125313.417 6  97142635.93206        41.000    24125314.898 7  95907788.46707        44.000
E19  26470031.191 6 139100963.97006        41.500    26470033.580 6 103874114.96306        39.000    26470030.234 6 106583858.45006        41.250    26470031.539 7 105228983.70907        43.250
E20  21812576.108 6 114625866.45106        36.250
E24  24160723.041 7 126965454.56007        44.000    24160738.004 7  94811923.77007        45.000    24160734.239 7  97285255.75407        45.500    24160735.573 8  96048583.26808        48.250
E25  24832169.258 7 130493927.51007        47.500    24832173.149 8  97446773.04308        48.750    24832169.821 8  99988848.41308        49.750    24832170.951 8  98717810.23408        52.250
E33  27804459.222 7 146113433.40807        42.000    27804461.782 6 109110697.44106        40.500    27804457.996 6 111957047.43806        40.500    27804459.552 7 110533880.45107        43.500
E36  27822828.435 6 146209948.86506        38.250    27822833.889 6 109182772.90306        39.250    27822830.755 6 112031007.70806        39.500    27822831.963 7 110606892.33107        42.500
G07  24398965.636 7 128217417.53007        42.750    24398965.368 4        26.500    24398963.002 4  99909668.33204        26.500    24398963.066 5  99909666.34105        35.500
G08  21569968.751 8 113350971.07108        49.250    21569968.327 6        41.000    21569969.929 6  88325441.12606        41.000    21569970.291 7  88325430.13807        45.750    21569969.547 8  84645217.34908        51.000
G10  21348282.485 8 112185985.89608        50.750    21348282.459 7        43.250    21348283.214 7  87417663.57507        43.250    21348283.088 7  87417658.57807        46.250    21348282.553 8  83775257.07908        52.000
G11  24872658.200 6 130706691.52106        40.500    24872657.794 3        20.750    24872657.282 3 101849369.39003        20.750
G13  25433877.656 5 133655920.98005        30.750    25433877.245 1         5.250    25433874.822 1 104147458.42701         5.250
G15  24629689.597 6 129429904.48406        41.750    24629689.589 3        23.750    24629687.310 3 100854465.24103        23.750    24629687.401 5 100854460.25005        35.500
G16  21882770.880 7 114994739.57207        47.250    21882770.259 6        36.000    21882769.641 6  89606283.92506        36.000
G18  23758613.135 7 124852359.03607        42.000    23758612.809 4        26.000    23758612.941 4  97287551.97704        26.000
G20  21269716.221 7 111773128.02707        47.000    21269715.363 6        38.000    21269714.152 6  87095937.02306        38.000
G21  23657462.495 7 124320812.92707        45.500    23657461.682 5        32.000    23657460.544 5  96873352.14105        32.000
G26  23707558.506 7 124584062.03607        43.000    23707558.176 4        28.000    23707560.689 4  97078504.07704        28.000    23707560.567 6  97078501.08506        38.500    23707560.442 7  93033553.70207        44.000
G27  20245436.737 8 106390508.40308        50.500    20245436.442 7        45.500    20245437.249 7  82901703.23907        45.500    20245437.318 8  82901706.24508        49.000    20245437.746 8  79447473.09408        53.750
G30  25084951.231 6 131822311.60706        39.250    25084950.811 3        23.000    25084952.319 3 102718683.71603        23.000    25084952.082 6 102718684.70806        37.250    25084952.913 7  98438740.09207        43.000
R06  21787625.758 7 116262971.20207        45.250
R07  21163311.671 8 113288860.11408        50.750    21163313.432 7  88113579.82707        47.250    21163313.343 7  88113583.82307        46.750
R08  23368245.868 6 125135899.38606        39.250    23368246.560 6  97327920.05906        40.500    23368247.009 6  97327919.03906        40.000
R12  22881772.846 8 122230308.45208        48.000    22881775.576 6  95068020.02806        41.500    22881776.134 6  95068022.02606        41.000
R13  20873678.683 6 111464269.05006        39.750    20873680.536 6  86694435.05206        41.500    20873680.894 6  86694437.05106        38.750
R14  22320546.598 8 118981076.07308        48.750    22320549.323 7  92540839.46507        42.500    22320549.185 7  92540788.48407        42.250
R21  23788285.953 7 127295912.11507        47.000    23788283.895 6  99007939.49506        39.500    23788284.624 6  99007940.51406        38.750    23788266.322 6  95379623.52506        39.000
R22  19919431.424 8 106331285.49008        51.250    19919433.071 8  82702138.86308        49.000    19919433.799 8  82702145.86208        48.000
R23  20630118.942 8 110357241.04108        50.250    20630122.963 7  85833432.83107        42.000    20630122.546 6  85833430.83506        41.750
> 2020 01 13 00 18 30.0000000  0 33
E02  26992140.358 7 141844655.69307        42.250    26992142.972 7 105922965.04407        43.500    26992138.953 6 108686156.29606        41.500    26992140.885 7 107304567.18107        45.500
E04  28412053.104 6 149306346.48706        40.750    28412056.027 6 111495010.36806        36.500    28412052.755 6 114403563.30006        37.250    28412054.027 6 112949292.33906        40.000
E11  23766068.913 7 124891559.87707        45.500    23766068.764 7  93263183.44707        47.250    23766065.168 7  95696122.84807        46.750    23766066.656 8  94479651.65308        50.000
E12  22069481.406 7 115975925.66907        44.250    22069481.276 7  86605407.41107        46.750    22069478.610 8  88864672.79408        48.500    22069479.516 8  87735046.10508        50.500
E14  24163632.208 7 126980746.88007        43.250    24163635.173 6  94823301.59506        41.250    24163631.125 6  97296926.16406        40.250    24163632.831 7  96060117.38207        43.750
E19  26459608.347 6 139046190.93206        41.250    26459610.628 6 103833213.04406        39.250    26459607.447 6 106541889.52706        41.250    26459608.567 7 105187548.29107        43.250
E20  21814538.854 6 114636181.83606        36.750
E24  24177272.762 7 127052423.78207        44.250    24177287.730 7  94876868.31207        44.750    24177283.957 7  97351894.50207        45.250    24177285.361 8  96114374.91208        48.000
E25  24835054.221 7 130509086.96207        47.500    24835057.899 8  97458093.38008        48.750    24835054.623 8 100000464.07308        49.750    24835055.698 8  98729278.23408        52.250
E33  27818955.314 6 146189610.20806        41.750    27818957.768 6 109167582.68706        40.500    27818953.726 6 112015416.65906        40.500    27818955.528 7 110591507.68307        43.500
E36  27808336.747 6 146133797.56506        41.000    27808344.392 6 109125906.65906        38.750    27808342.305 6 111972658.00006        39.500    27808341.031 7 110549284.36607        42.500
G07  24402379.689 7 128235361.12707        44.000    24402379.399 4        27.000    24402377.600 4  99923650.34204        27.000    24402377.395 6  99923648.34606        36.750
G08  21557057.025 8 113283119.02008        49.000    21557056.596 6        41.000    21557057.922 6  88272569.39506        41.000    21557058.473 7  88272558.40607        45.750    21557057.631 8  84594548.61208        50.750
G10  21340591.736 8 112145570.78408        50.750    21340591.705 7        43.250    21340592.385 7  87386171.28607        43.250    21340592.216 7  87386166.29707        46.500    21340591.793 8  83745076.97908        52.000
G11  24852290.769 6 130599661.53706        41.000    24852290.345 3        21.250    24852290.132 3 101765969.43703        21.250
G13  25439341.814 5 133684638.92705        34.250    25439341.564 1         8.750    25439339.557 1 104169835.99001         8.750
G15  24632620.629 6 129445308.59006        41.000    24632620.651 3        23.000    24632618.490 3 100866468.43703        23.000    24632618.352 5 100866463.41905        35.000
G16  21899424.913 7 115082256.63307        47.000    21899424.287 5        35.750    21899423.506 5  89674479.04905        35.750
G18  23738023.207 6 124744159.37206        41.750    23738022.903 4        25.750    23738023.431 4  97203240.54204        25.750
G20  21275274.106 7 111802335.62607        47.000    21275273.243 6        38.000    21275272.182 6  87118696.19306        38.000
G21  23672718.219 7 124400982.33007        45.250    23672717.397 5        32.000    23672716.464 5  96935821.79405        32.000
G26  23728565.269 7 124694451.79807        42.750    23728564.988 4        28.000    23728567.147 4  97164522.07104        28.000    23728567.079 6  97164519.07206        38.500    23728566.916 7  93115987.58707        44.000
G27  20244244.601 8 106384243.49308        50.500    20244244.302 7        45.500    20244245.043 7  82896821.48707        45.500    20244244.991 8  82896824.49308        49.000    20244245.626 8  79442794.74908        53.750
G30  25079648.342 6 131794443.53406        38.750    25079647.918 3        22.500    25079649.431 3 102696968.33703        22.500    25079649.125 6 102696969.34406        37.750    25079649.832 7  98417929.52207        43.250
R06  21796867.228 7 116312285.23907        44.750
R07  21150787.597 8 113221817.06908        51.000    21150789.102 7  88061435.24907        47.000    21150788.980 7  88061439.23607        46.500
R08  23343620.235 6 125004026.66006        39.000    23343620.185 6  97225352.40706        40.750    23343620.515 6  97225351.39606        40.000
R12  22906083.230 7 122360170.81907        47.750    22906085.995 6  95169024.08606        41.250    22906086.355 6  95169026.08906        41.000
R13  20882504.832 6 111511398.86806        40.000    20882506.392 6  86731091.56106        41.250    20882507.008 6  86731093.54506        38.500
R14  22307076.609 8 118909271.63608        49.250    22307079.552 7  92484991.55107        43.000    22307079.320 7  92484940.56807        43.000
R21  23807442.135 7 127398444.03507        42.750    23807445.951 6  99087686.53606        40.250    23807445.770 6  99087687.52306        40.250    23807431.186 6  95456448.10506        40.750
R22  19927687.540 8 106375355.30708        51.500    19927688.907 8  82736415.38108        49.000    19927689.284 8  82736422.38208        48.250
R23  20617256.423 8 110288436.79108        50.500    20617260.403 6  85779918.43906        41.500    20617259.404 6  85779916.42506        41.250
> 2020 01 13 00 19  0.0000000  0 33
E02  26980072.539 7 141781237.45307        42.750    26980075.049 7 105875607.27207        44.000    26980070.268 6 108637563.07006        41.000    26980072.414 7 107256591.68007        45.500
E04  28394899.460 6 149216202.58506        40.750    28394902.228 6 111427695.14306        36.750    28394898.868 6 114334492.01206        37.000    28394900.141 6 112881099.08206        40.000
E11  23758798.500 7 124853352.56007        45.000    23758798.142 7  93234652.01807        47.000    23758794.491 7  95666847.11907        46.750    23758796.025 8  94450748.07508        50.000
E12  22076521.672 7 116012922.86907        44.250    22076521.629 7  86633035.18507        46.500    22076518.918 8  88893021.29608        48.250    22076519.835 8  87763034.24508        50.500
E14  24201952.355 7 127182119.96907        42.750    24201955.132 6  94973677.54406        41.500    24201951.281 6  97451224.98206        40.500    24201952.915 7  96212454.77007        44.000
E19  26449247.508 6 138991744.47106        41.500    26449249.626 6 103792554.99106        39.750    26449246.657 6 106500170.83406        41.250    26449247.733 7 105146359.91707        43.500
E20  21816585.493 6 114646934.17806        36.500
E24  24193859.747 7 127139589.56707        44.250    24193874.868 7  94941959.63707        45.250    24193871.193 7  97418683.87307        45.000    24193872.541 8  96180315.26108        48.250
E25  24838024.758 7 130524697.58407        47.500    24838028.593 8  97469750.63408        48.500    24838025.260 8 100012425.43308        49.750    24838026.313 8  98741087.53708        52.000
E33  27833453.434 7 146265798.12807        42.000    27833455.994 6 109224476.24206        40.500    27833451.956 6 112073794.39706        40.250    27833453.691 7 110649143.32407        43.500
E36  27793855.139 6 146057695.35506        40.250    27793861.999 6 109069077.03106        39.750    27793858.509 6 111914345.86406        39.000    27793859.216 7 110491713.48107        42.500
G07  24405892.383 7 128253821.12807        44.500    24405892.102 4        26.750    24405890.404 4  99938034.74804        26.750    24405890.220 6  99938032.75906        36.500
G08  21544196.797 8 113215537.95108        49.500    21544196.368 6        41.250    21544197.603 6  88219908.82606        41.250    21544198.116 7  88219897.83507        46.000    21544197.430 8  84544082.23208        51.000
G10  21333005.665 8 112105705.31708        50.750    21333005.625 7        43.250    21333006.175 7  87355107.29407        43.250    21333006.084 7  87355102.29007        46.500    21333005.677 8  83715307.31808        52.000
G11  24831930.877 6 130492666.97506        40.500    24831930.453 3        21.000    24831929.193 3 101682597.04903        21.000
G13  25444910.160 5 133713898.61505        31.250    25444909.941 1         6.250    25444907.617 1 104192635.84001         6.250
G15  24635662.012 6 129461292.59606        41.250    24635662.043 3        23.250    24635660.168 3 100878923.51103        23.250    24635660.636 5 100878918.54605        35.500
G16  21916151.135 7 115170152.98507        46.250    21916150.505 5        35.500    21916149.503 5  89742969.71505        35.500
G18  23717460.158 6 124636100.24206        40.500    23717459.814 4        26.000    23717460.733 4  97119038.62004        26.000
G20  21280939.236 7 111832107.50107        47.000    21280938.369 6        38.000    21280937.724 6  87141895.06106        38.000
G21  23687987.738 7 124481224.13607        45.000    23687986.925 5        31.750    23687985.619 5  96998347.87105        31.750
G26  23749596.444 7 124804972.78807        42.000    23749596.154 4        28.500    23749598.753 4  97250642.31704        28.500    23749598.850 6  97250639.30906        38.500    23749598.346 7  93198519.49307        44.250
G27  20243134.034 8 106378407.88708        50.500    20243133.739 7        45.250    20243134.511 7  82892274.25907        45.250    20243134.688 8  82892277.26508        49.000    20243135.179 8  79438436.99308        53.750
G30  25074445.730 6 131767100.51606        38.750    25074445.319 4        24.000    25074446.304 4 102675662.09304        24.000    25074445.376 6 102675663.10806        38.000    25074446.593 7  98397511.02507        43.500
R06  21806250.270 7 116362353.64907        45.250
R07  21138392.689 8 113155465.33708        51.250    21138393.876 7  88009828.36107        47.000    21138394.206 7  88009832.34807        46.750
R08  23319013.791 6 124872260.73006        39.750    23319014.197 6  97122867.79506        41.000    23319013.277 6  97122866.79706        40.500
R12  22930426.428 7 122490209.53907        47.000    22930429.651 6  95270165.32306        41.500    22930429.646 6  95270167.30906        41.000
R13  20891475.702 6 111559304.33806        40.000    20891477.581 6  86768351.34806        41.500    20891477.901 6  86768353.33806        38.250
R14  22293731.131 8 118838134.70908        49.250    22293734.183 7  92429662.85207        42.500    22293734.086 7  92429611.84807        42.500
R21  23826612.014 7 127501020.46807        46.250    23826617.282 6  99167468.18206        41.500    23826615.955 6  99167469.19006        41.750    23826597.195 6  95533306.12306        40.250
R22  19936007.253 8 106419766.85408        51.500    19936008.714 8  82770957.69908        48.750    19936009.011 8  82770964.68908        48.250
R23  20604446.935 8 110219910.22408        50.500    20604449.893 6  85726619.99906        41.500    20604448.896 6  85726617.99906        41.000
> 2020 01 13 00 19 30.0000000  0 33
E02  26968064.417 7 141718133.19907        43.250    26968066.476 7 105828483.97407        44.000    26968062.052 7 108589210.46207        42.000    26968063.836 7 107208853.72307        46.000
E04  28377737.535 6 149126016.90506        41.250    28377740.396 6 111360348.67706        37.000    28377737.056 6 114265388.67806        37.500    28377738.394 6 112812874.18506        40.250
E11  23751565.474 7 124815342.98207        44.750    23751565.069 7  93206268.26607        47.250    23751561.454 7  95637722.91207        46.500    23751563.028 8  94421994.09908        50.000
E12  22083596.002 7 116050098.59807        44.250    22083595.925 7  86660796.27207        47.000    22083593.168 8  88921506.58608        48.250    22083594.121 8  87791157.43408        50.500
E14  24240273.891 7 127383500.85007        43.500    24240276.589 6  95124059.31706        41.250    24240272.722 6  97605529.75906        40.500    24240274.398 7  96364798.04507        43.750
E19  26438949.048 6 138937626.33306        41.250    26438951.350 6 103752142.10506        39.500    26438948.162 6 106458703.70306        41.250    26438949.353 7 105105419.90907        43.250
E20  21818714.391 6 114658123.33206        36.750
E24  24210484.023 7 127226950.20807        44.500    24210499.079 7  95007196.45907        45.000    24210495.513 7  97485622.53207        45.250    24210496.782 8  96246403.00208        48.250
E25  24841081.165 7 130540759.23007        47.500    24841085.068 8  97481744.68608        49.000    24841081.638 8 100024732.37808        49.750    24841082.770 8  98753238.03808        52.250
E33  27847953.729 7 146341997.05007        42.250    27847956.300 6 109281378.02106        41.250    27847952.275 6 112132180.56306        40.250    27847953.884 7 110706787.29807        43.750
E36  27779382.812 6 145981642.58306        40.500    27779388.311 6 109012284.37706        39.750    27779384.816 6 111856071.66406        39.750    27779386.805 7 110434180.02507        42.750
G07  24409502.859 7 128272796.26007        44.250    24409502.649 4        26.000    24409501.025 4  99952820.56004        26.000    24409500.982 6  99952818.56606        36.000
G08  21531388.599 8 113148229.88008        49.750    21531388.188 6        41.250    21531389.315 6  88167460.97806        41.250    21531389.795 7  88167449.99007        45.750    21531389.037 8  84493819.71108        51.000
G10  21325524.323 8 112066390.84608        50.750    21325524.283 7        43.000    21325524.922 7  87324472.64907        43.000    21325524.646 7  87324467.65307        46.500    21325524.359 8  83685949.11808        52.250
G11  24811577.144 6 130385708.83506        39.750    24811576.684 3        20.500    24811576.272 3 101599253.06503        20.500
G13  25450580.741 5 133743698.91305        33.500    25450580.308 1         6.500    25450578.318 1 104215856.76801         6.500
G15  24638814.015 6 129477856.76906        41.500    24638814.046 3        23.750    24638812.738 3 100891830.68803        23.750    24638812.867 6 100891825.66906        36.000
G16  21932948.899 7 115258426.76507        46.250    21932948.256 5        35.000    21932947.368 5  89811754.49405        35.000
G18  23696924.126 6 124528183.35706        40.500    23696923.800 4        25.250    23696924.887 4  97034947.53604        25.250
G20  21286712.131 7 111862442.42607        46.500    21286711.260 6        37.750    21286710.271 6  87165532.67006        37.750
G21  23703270.989 7 124561537.67507        45.250    23703270.167 5        31.750    23703268.829 5  97060929.84205        31.750
G26  23770652.199 7 124915622.68707        42.500    23770651.922 4        28.500    23770654.819 4  97336863.01304        28.500    23770654.533 6  97336860.00006        39.750    23770654.404 7  93281147.65507        44.250
G27  20242105.529 8 106373002.26608        50.500    20242105.230 7        45.250    20242105.792 7  82888062.08707        45.250    20242105.824 8  82888065.09408        48.750    20242106.532 8  79434400.32808        53.750
G30  25069341.848 6 131740283.46606        38.250    25069341.415 3        22.500    25069342.971 3 102654765.69303        22.500    25069342.433 6 102654766.69806        37.250    25069343.389 7  98377485.30007        43.500
R06  21815773.561 7 116413173.98407        44.500
R07  21126127.586 8 113089807.91108        51.500    21126128.466 7  87958761.47907        46.750    21126128.828 7  87958765.46707        46.500
R08  23294426.843 6 124740604.93206        40.250    23294428.197 6  97020468.88206        41.000    23294428.180 6  97020467.87706        40.750
R12  22954802.793 7 122620420.57407        47.250    22954805.669 6  95371440.56206        41.750    22954805.460 6  95371442.54506        41.000
R13  20900591.617 6 111607982.36106        39.500    20900593.515 6  86806212.02006        41.750    20900593.396 6  86806214.00606        38.250
R14  22280511.951 8 118767668.50008        49.250    22280514.689 7  92374855.81007        42.250    22280514.201 7  92374804.80407        42.500
R21  23845793.142 7 127603641.08607        47.500    23845790.160 6  99247284.25706        39.250    23845791.194 6  99247285.22506        38.500    23845772.613 6  95610197.20606        38.000
R22  19944390.731 8 106464519.13108        51.250    19944392.349 8  82805765.01608        49.000    19944392.559 8  82805772.00908        48.250
R23  20591688.185 8 110151662.41208        50.250    20591691.768 6  85673538.37706        41.250    20591691.876 6  85673536.38506        41.250
> 2020 01 13 00 20  0.0000000  0 33
E02  26956116.447 7 141655346.78107        42.250    26956118.257 7 105781598.01707        43.000    26956114.726 7 108541101.39907        42.750    26956116.130 7 107161356.21207        46.000
E04  28360568.852 6 149035793.36806        40.750    28360571.551 6 111292973.96006        37.250    28360568.110 6 114196256.36806        38.000    28360569.438 6 112744620.67006        40.500
E11  23744370.569 7 124777533.42007        45.000    23744370.124 7  93178033.84907        47.000    23744366.515 7  95608751.95007        46.500    23744368.085 8  94393391.40908        49.750
E12  22090704.506 7 116087454.54207        44.500    22090704.497 7  86688691.95007        47.000    22090701.772 8  88950129.97408        48.000    22090702.722 8  87819416.96608        50.500
E14  24278596.657 7 127584888.30607        43.250    24278599.524 6  95274446.02106        40.750    24278595.788 6  97759839.59406        40.500    24278597.241 7  96517146.31407        43.750
E19  26428714.067 6 138883840.38606        41.250    26428716.181 6 103711977.29006        39.250    26428713.087 6 106417491.11106        41.250    26428714.230 7 105064731.20807        43.250
E20  21820927.061 6 114669751.35306        36.500
E24  24227145.287 7 127314506.11707        44.000    24227160.415 7  95072579.10307        44.500    24227156.853 7  97552710.80807        45.500    24227158.119 8  96312638.46108        48.000
E25  24844223.820 7 130557273.82007        47.500    24844227.684 8  97494076.98608        48.750    24844224.222 8 100037386.39408        49.500    24844225.413 8  98765731.19608        52.250
E33  27862455.950 7 146418208.82407        42.750    27862458.819 6 109338289.41806        41.000    27862454.783 6 112190576.60206        40.250    27862456.599 7 110764441.01907        43.750
E36  27764920.568 6 145905641.68506        39.750    27764929.165 6 108955530.43506        40.250    27764926.309 6 111797837.20206        40.750    27764924.558 7 110376685.81907        43.500
G07  24413212.497 7 128292287.86607        43.750    24413212.323 4        25.000    24413209.753 4  99968008.81004        25.000    24413209.405 5  99968006.80905        35.500
G08  21518632.817 8 113081198.21408        50.000    21518632.402 6        41.500    21518633.650 6  88115228.51306        41.500    21518634.112 7  88115217.51907        45.750    21518633.289 8  84443763.59508        51.000
G10  21318148.603 8 112027630.82708        50.500    21318148.559 7        43.000    21318149.164 7  87294270.04607        43.000    21318148.847 7  87294265.05407        46.250    21318148.591 8  83657004.95808        52.250
G11  24791230.972 6 130278790.24806        40.500    24791230.548 3        20.500    24791230.434 3 101515939.89603        20.500
G13  25456354.585 5 133774041.08005        33.250    25456354.112 1         5.000    25456352.113 1 104239499.96101         5.000
G15  24642076.985 6 129495002.64406        41.000    24642077.007 3        23.500    24642075.337 3 100905191.11303        23.500    24642075.362 5 100905186.09905        35.750
G16  21949818.700 7 115347077.31107        46.500    21949818.057 5        34.750    21949816.859 5  89880832.85005        34.750
G18  23676415.756 6 124420412.20006        40.750    23676415.403 4        25.750    23676416.738 4  96950970.02104        25.750
G20  21292591.685 7 111893341.55507        46.500    21292590.822 6        37.750    21292590.182 6  87189609.91106        37.750
G21  23718568.055 7 124641923.71707        45.250    23718567.224 5        32.000    23718565.955 5  97123568.30405        32.000
G26  23791733.032 7 125026401.25007        42.500    23791732.733 4        28.250    23791735.237 4  97423183.96904        28.250    23791734.923 6  97423180.96306        39.250    23791734.902 7  93363871.90707        43.750
G27  20241159.108 8 106368029.50008        50.750    20241158.818 7        45.250    20241159.422 7  82884187.20107        45.250    20241159.754 8  82884190.20508        48.750    20241160.189 9  79430686.89509        54.000
G30  25064340.017 6 131713995.44206        38.250    25064339.566 3        22.000    25064340.200 3 102634281.51903        22.000    25064340.005 6 102634282.51506        37.000    25064340.983 7  98357854.62707        43.000
R06  21825438.111 7 116464746.60007        45.000
R07  21113992.592 8 113024850.45808        51.250    21113993.824 7  87908239.01607        46.750    21113994.205 7  87908243.01607        46.500
R08  23269863.575 6 124609066.62706        40.500    23269864.219 6  96918161.29506        41.000    23269863.922 6  96918160.28206        40.500
R12  22979210.078 7 122750801.76007        46.750    22979213.019 6  95472848.12106        41.500    22979213.328 6  95472850.12206        41.500
R13  20909851.861 6 111657432.97906        39.250    20909854.165 6  86844673.59506        41.500    20909854.742 6  86844675.59106        38.500
R14  22267419.552 8 118697878.38208        49.500    22267421.729 7  92320574.57807        42.000    22267421.972 6  92320523.59106        41.500
R21  23864976.163 7 127706307.38307        45.000    23864974.520 6  99327135.72806        36.750    23864975.654 6  99327136.76406        36.250    23864959.670 6  95687122.46106        39.500
R22  19952838.561 8 106509613.39208        51.000    19952840.148 8  82840838.31908        49.250    19952840.257 8  82840845.31908        48.250
R23  20578982.565 8 110083696.61008        50.500    20578986.354 6  85620676.09906        41.500    20578986.027 6  85620674.09206        41.000
> 2020 01 13 00 20 30.0000000  0 33
E02  26944229.233 7 141592881.60307        42.250    26944231.764 7 105734951.92307        43.250    26944228.086 7 108493238.47207        42.750    26944229.623 7 107114101.70307        46.000
E04  28343392.988 6 148945535.59106        41.000    28343395.966 6 111225573.65206        36.750    28343392.494 6 114127097.80706        38.000    28343393.922 6 112676341.23406        40.500
E11  23737213.933 7 124739925.65507        45.000    23737213.580 7  93149950.14607        46.750    23737210.108 7  95579935.61707        46.500    23737211.553 8  94364941.38808        49.750
E12  22097847.721 7 116124991.90907        44.500    22097847.606 7  86716723.09107        46.750    22097844.876 8  88978892.36908        48.000    22097845.835 8  87847813.73408        50.250
E14  24316920.227 7 127786280.55507        43.500    24316923.285 6  95424836.28906        41.000    24316919.515 6  97914153.08906        40.500    24316920.933 7  96669498.19807        43.750
E19  26418542.751 6 138830389.93806        41.000    26418544.902 6 103672063.02606        39.500    26418541.962 6 106376535.61206        41.500    26418542.929 7 105024296.32407        43.500
E20  21823223.993 6 114681819.69206        36.500
E24  24243843.639 7 127402257.19607        44.000    24243858.822 7  95138107.49207        44.250    24243855.381 7  97619948.63207        45.500    24243856.548 7  96379021.56507        47.750
E25  24847452.718 7 130574242.74507        47.250    24847456.838 8  97506748.56308        48.500    24847453.307 8 100050388.53308        49.500    24847454.546 8  98778568.05208        52.000
E33  27876961.669 6 146494434.84406        41.250    27876964.218 6 109395211.42706        41.250    27876960.045 6 112248983.54306        40.000    27876961.944 7 110822105.49307        43.750
E36  27750468.854 6 145829694.54606        41.500    27750475.485 6 108898816.60506        39.500    27750470.863 6 111739643.86306        40.250    27750472.180 7 110319232.25307        42.750
G07  24417020.011 7 128312296.37107        43.000    24417019.819 4        24.750    24417017.178 4  99983599.85604        24.750    24417016.937 5  99983597.83805        34.000
G08  21505930.404 8 113014446.55608        50.250    21505929.971 6        41.750    21505931.232 6  88063214.23906        41.750    21505931.803 7  88063203.23807        46.000    21505930.898 8  84393916.57408        50.750
G10  21310878.839 8 111989428.20808        50.500    21310878.790 7        43.000    21310879.428 7  87264501.78407        43.000    21310879.056 7  87264496.78407        46.500    21310878.822 8  83628477.04208        52.000
G11  24770893.185 6 130171913.98706        41.000    24770892.725 3        21.250    24770891.702 3 101432659.72203        21.250
G13  25462231.729 5 133804925.99805        33.750    25462231.273 1         6.750    25462229.220 1 104263566.15901         6.750
G15  24645451.331 7 129512731.87707        42.750    24645451.357 4        24.000    24645448.840 4 100919006.11204        24.000    24645449.120 6 100919001.10306        36.250
G16  21966759.981 7 115436104.89807        46.250    21966759.342 5        35.000    21966758.352 5  89950205.00905        35.000
G18  23655936.347 6 124312789.63706        41.000    23655936.030 4        26.250    23655936.908 4  96867108.28204        26.250
G20  21298579.261 7 111924805.13507        46.500    21298578.412 6        38.000    21298577.496 6  87214126.99606        38.000
G21  23733879.024 7 124722383.61607        45.000    23733878.211 5        31.750    23733877.081 5  97186264.32405        31.750
G26  23812837.877 7 125137307.78207        42.000    23812837.600 4        28.500    23812840.142 4  97509604.64104        28.500    23812839.743 6  97509601.64306        40.000    23812839.704 7  93446691.71507        44.000
G27  20240295.481 8 106363491.85608        50.500    20240295.191 7        45.250    20240295.822 7  82880651.37707        45.250    20240296.285 8  82880654.38108        48.500    20240296.681 8  79427298.40008        53.500
G30  25059437.975 6 131688238.89206        39.500    25059437.551 3        22.750    25059439.083 3 102614211.47403        22.750    25059439.102 6 102614212.46006        37.500    25059439.642 7  98338620.84107        43.250
R06  21835243.942 7 116517070.76007        44.500
R07  21101989.804 8 112960598.09808        51.000    21101991.018 7  87858264.96907        46.750    21101991.299 7  87858268.96807        46.750
R08  23245323.020 6 124477651.38006        40.500    23245323.337 6  96815949.46706        41.000    23245323.550 6  96815948.46406        40.500
R12  23003648.998 7 122881350.52407        47.750    23003652.533 7  95574386.05807        42.000    23003652.524 6  95574388.06106        41.750
R13  20919256.039 6 111707655.48106        39.000    20919259.499 7  86883735.52107        42.000    20919258.877 6  86883737.51606        39.000
R14  22254454.799 8 118628769.50508        48.500    22254458.079 7  92266823.24407        43.250    22254457.549 7  92266772.24707        43.000
R21                                                  23884173.754 7  99407023.87307        42.000    23884173.518 6  99407024.86106        41.250    23884154.222 6  95764083.06506        39.500
R22  19961350.384 8 106555050.68808        51.500    19961352.212 8  82876178.44008        49.250    19961352.204 8  82876185.43808        48.500
R23  20566330.680 8 110016015.18508        50.750    20566334.171 6  85568034.99706        41.500    20566333.181 6  85568032.98206        41.500
> 2020 01 13 00 21  0.0000000  0 33
E02  26932403.405 7 141530734.69807        44.000    26932405.888 7 105688543.53407        43.750    26932401.769 7 108445619.42607        42.750    26932403.559 7 107067087.98807        46.250
E04  28326210.989 6 148855240.90406        41.000    28326213.556 6 111158145.79906        37.250    28326210.392 6 114057910.97006        38.250    28326211.542 6 112608033.88706        40.750
E11  23730094.682 7 124702515.14207        45.000    23730094.602 7  93122013.73007        46.750    23730091.191 7  95551270.43807        46.750    23730092.595 8  94336640.59208        49.750
E12  22105024.392 7 116162705.64607        44.500    22105024.376 7  86744885.94707        46.750    22105021.547 8  89007789.90008        48.000    22105022.521 8  87876343.92708        50.250
E14  24355243.376 7 127987669.67407        42.750    24355246.452 6  95575224.22806        41.000    24355242.474 6  98068464.21106        40.000    24355244.053 7  96821847.72607        43.500
E19  26408434.816 6 138777272.08506        40.750    26408436.924 6 103632397.10906        39.750    26408433.859 6 106335834.93306        41.250    26408434.934 7 104984113.02807        43.500
E20  21825603.177 6 114694323.62306        37.000
E24  24260578.117 7 127490197.07407        43.750    24260593.223 7  95203776.87707        44.000    24260589.749 7  97687331.13507        45.000    24260590.898 7  96445547.51007        47.500
E25  24850767.614 7 130591661.14207        47.000    24850771.522 8  97519755.77008        48.500    24850767.932 8 100063735.06008        49.500    24850769.208 8  98791744.91908        52.000
E33  27891468.521 6 146570670.25906        41.500    27891471.157 6 109452140.45006        41.000    27891467.491 6 112307397.68306        40.500    27891469.086 7 110879777.06907        43.750
E36  27736026.019 6 145753796.88006        41.500    27736030.323 6 108842139.73206        39.500    27736028.379 6 111681488.47806        40.750    27736029.367 7 110261816.10307        43.250
G07  24420924.639 7 128332816.10107        43.000    24420924.407 4        25.000    24420921.821 4  99999589.24904        25.000    24420922.596 5  99999587.26205        35.000
G08  21493280.600 8 112947971.43208        50.000    21493280.171 6        41.750    21493281.271 6  88011415.44106        41.750    21493282.022 7  88011404.45307        45.750    21493281.286 8  84344276.06508        50.750
G10  21303714.524 8 111951779.59108        50.750    21303714.489 7        42.750    21303715.013 7  87235165.20907        42.750    21303714.979 7  87235160.21607        46.250    21303714.624 8  83600362.82808        51.750
G11  24750563.065 6 130065076.85706        40.000    24750562.592 3        20.750    24750560.853 3 101349409.99903        20.750
G13  25468210.843 5 133836347.97805        33.000    25468210.401 1         7.250    25468208.620 1 104288050.80301         7.250
G15  24648935.076 7 129531039.47707        43.000    24648935.089 4        25.000    24648932.753 4 100933271.78004        25.000    24648933.606 5 100933266.78505        35.250
G16  21983771.684 7 115525501.79707        46.250    21983771.058 5        35.000    21983769.992 5  90019864.93905        35.000
G18  23635484.350 7 124205312.61807        42.250    23635484.037 4        27.000    23635484.547 4  96783359.93504        27.000
G20  21304672.794 7 111956827.45007        46.750    21304671.954 6        38.000    21304671.138 6  87239079.45006        38.000
G21  23749202.851 7 124802911.51707        45.000    23749202.002 5        31.750    23749200.961 5  97249013.33605        31.750
G26  23833965.791 6 125248335.28106        41.000    23833965.546 4        28.250    23833967.950 4  97596119.56704        28.250    23833967.887 6  97596116.57106        39.000    23833967.489 7  93529601.84107        44.000
G27  20239514.062 8 106359385.38608        50.250    20239513.776 7        45.250    20239514.339 7  82877451.52807        45.250    20239514.980 8  82877454.53108        48.500    20239515.185 8  79424231.87308        53.250
G30  25054636.958 6 131663009.98506        38.250    25054636.547 3        22.250    25054638.219 3 102594552.59003        22.250    25054638.180 6 102594553.58706        36.000    25054638.871 7  98319781.06807        44.000
R06  21845188.888 7 116570139.11607        45.500
R07  21090118.004 8 112897049.06708        51.500    21090119.491 7  87808837.95307        47.250    21090119.694 7  87808841.95307        46.750
R08  23220804.820 6 124346359.01106        40.750    23220805.391 6  96713833.18606        41.000    23220804.875 6  96713832.17406        40.750
R12  23028117.803 7 123012058.12607        47.250    23028121.033 6  95676047.50706        41.750    23028120.483 6  95676049.50906        41.750    23028205.902 5  92332142.97415        34.250
R13  20928804.544 6 111758642.62406        39.250    20928807.706 7  86923392.17107        42.250    20928807.647 6  86923394.17706        39.000
R14  22241617.833 8 118560339.98608        50.000    22241621.097 7  92213600.29407        43.000    22241620.366 7  92213549.28707        43.000
R21  23903369.247 7 127911775.47807        42.000    23903373.551 6  99486944.28006        40.000    23903374.120 6  99486945.23706        39.500    23903354.850 6  95841074.61406        37.750
R22  19969925.381 8 106600825.88208        51.500    19969927.519 8  82911781.36208        49.250    19969927.735 8  82911788.35708        48.750
R23  20553730.711 8 109948614.66508        50.750    20553733.984 6  85515612.39106        41.250    20553733.418 6  85515610.37906        41.250
