     3.04           OBSERVATION DATA    M: MIXED            RINEX VERSION / TYPE
HEADER CHANGED BY EPN CB ON 2021-12-28                      COMMENT
Mdb2Rinex 4.97.35L                      20211222 025042 UTC PGM / RUN BY / DATE
ACOR                                                        MARKER NAME
13434M001                                                   MARKER NUMBER
IGNE                                                        OBSERVER / AGENCY
1833574             LEICA GR50          4.50/7.710          REC # / TYPE / VERS
103033              LEIAT504        LEIS                    ANT # / TYPE
        3.0460        0.0000        0.0000                  ANTENNA: DELTA H/E/N
  4594489.8680  -678367.9920  4357065.8700                  APPROX POSITION XYZ
LX:     < 12dBHz -> 1; 12-17dBHz -> 2; 18-23dBHz -> 3       COMMENT
G   12 C1C L1C S1C C2S L2S S2S C2W L2W S2W C5Q L5Q S5Q      SYS / # / OBS TYPES
R   12 C1C L1C S1C C2P L2P S2P C2C L2C S2C C3Q L3Q S3Q      SYS / # / OBS TYPES
E   15 C1C L1C S1C C5Q L5Q S5Q C6C L6C S6C C7Q L7Q S7Q C8Q  SYS / # / OBS TYPES
       L8Q S8Q                                              SYS / # / OBS TYPES
C    9 C2I L2I S2I C6I L6I S6I C7I L7I S7I                  SYS / # / OBS TYPES
DBHZ                                                        SIGNAL STRENGTH UNIT
    30.000                                                  INTERVAL
  2021    12    21     0     0    0.0000000     GPS         TIME OF FIRST OBS
  2021    12    21    23    59   30.0000000     GPS         TIME OF LAST OBS
     0                                                      RCV CLOCK OFFS APPL
 22 R01  1 R02 -4 R03  5 R04  6 R05  1 R06 -4 R07  5 R08  6 GLONASS SLOT / FRQ #
    R09 -2 R10 -7 R12 -1 R13 -2 R14 -7 R15  0 R17  4 R18 -3 GLONASS SLOT / FRQ #
    R19  3 R20  2 R21  4 R22 -3 R23  3 R24  2               GLONASS SLOT / FRQ #
 C1C  -71.940 C1P  -71.940 C2C  -71.940 C2P  -71.940        GLONASS COD/PHS/BIS
    18    18  2185     7                                    LEAP SECONDS
                                                            END OF HEADER
> 2021 12 21 00 00  0.0000000  0 38
G01  24600158.420   129274705.78406        38.300    24600162.420   100733552.50006        39.200    24600162.100   100733552.49806        37.150    24600160.900    96536320.75806        40.800
G07  23818653.240   125167854.81207        43.400    23818653.000    97533394.66807        42.950    23818652.720    97533382.65007        42.350
G08  20980381.160   110252666.62308        52.300    20980383.780    85911190.59408        53.050    20980383.040    85911187.58008        50.700    20980381.260    82331548.95808        51.050
G10  21746265.920   114277424.81808        52.100    21746267.840    89047360.40108        51.600    21746267.900    89047364.39008        52.000    21746265.740    85337044.17108        49.550
G16  21389146.080   112400729.55108        50.950                                                    21389145.280    87584972.23408        48.750
G18  25102873.240   131916486.61706        38.950    25102874.100   102792071.26707        42.350    25102874.240   102792073.24506        38.850    25102875.900    98509081.27616        38.650
G21  22102016.060   116146899.49008        48.800                                                    22102015.080    90504076.15907        44.350
G23  22693452.340   119254907.31107        46.200    22693452.760    92925911.42408        48.750    22693452.500    92925911.41407        45.000    22693455.480    89054011.06907        45.750
G26  23978428.500   126007541.19606        41.700    23978431.660    98187726.34307        42.400    23978431.320    98187731.33106        41.300    23978429.560    94096567.99207        42.200
G30  25069396.360   131740562.82506        38.100    25069398.620   102654991.17506        40.000    25069398.080   102654992.15806        37.500    25069397.400    98377696.87006        39.300
R04  22900311.340   122630143.16806        39.650    22900314.400    95379006.78306        40.850    22900314.380    95379001.77306        41.900
R05  22093490.540   118102366.16207        43.300    22093494.660    91857418.12107        45.250    22093494.740    91857409.12307        46.100
R10  21676363.300   115547229.07907        47.050
R12  22710639.000   121316148.78607        42.100    22710643.120    94357016.34507        42.050    22710643.120    94357017.35407        43.200
R20  20773143.720   111083349.71506        36.500    20773148.620    86398186.53508        48.900    20773149.720    86398198.53408        49.000
R21  20240115.380   108308971.37908        49.150    20240118.440    84240329.21908        49.350    20240118.620    84240331.22708        49.550    20240109.360    81153235.13709        56.100
E02  27688711.320   145505160.07446        40.600    27688713.600   108656456.44706        36.950    27688711.420   118104837.13505        35.050    27688713.340   111490972.17507        42.300    27688714.300   110073712.70907        43.600
E11  22406152.280   117745135.55648        50.950    22406151.680    87926565.68107        46.050    22406148.560    95572335.68107        45.550    22406151.420    90220305.22708        51.850    22406152.760    89073450.84108        53.100
E12  22571067.580   118611771.40248        49.900    22571067.280    88573726.26107        46.050    22571063.820    96275773.17607        45.350    22571067.840    90884379.35908        52.550    22571068.360    89729067.70008        53.550
E24  24774441.500   130190598.05548        52.750    24774443.500    97220276.95107        47.750    24774441.040   105674192.47207        46.800    24774443.080    99756454.43708        53.450    24774444.260    98488359.08309        54.700
E25  24416364.120   128308865.53748        52.700    24416367.680    95815078.42908        48.650    24416362.580   104146798.92907        47.250    24416367.220    98314602.40609        54.450    24416368.440    97064828.30909        55.650
E31  28064441.720   147479695.56446        41.700    28064446.260   110130981.24606        37.500    28064441.440   119707482.02405        34.450    28064447.040   113003970.99606        40.000    28064446.640   111567475.51507        42.000
E33  28220284.040   148298627.71446        37.650    28220287.040   110742457.55405        35.100    28220286.080   120372252.80405        35.350    28220286.820   113631503.82907        43.700    28220287.280   112187027.58407        44.200
E36  27683668.740   145478664.56647        42.750    27683673.820   108636680.66606        38.950    27683668.300   118083327.13306        36.700    27683672.580   111470682.41307        44.350    27683674.280   110053684.92307        45.550
C05  40593343.060   211380189.55115        35.150                                                    40593342.420   163452566.45906        38.950
C11  21913541.980   114109591.09508        50.550    21913535.540    92723378.80708        50.150    21913541.760    88236778.69909        55.000
C14  26415938.540   137554716.94706        36.000    26415927.100   111774446.86505        35.700    26415937.140   106366035.67707        42.200
C21  24427140.220   127198542.99907        46.750    24427131.700   103359198.09607        44.100
C22  26043003.400   135612765.29006        41.250    26042993.700   110196445.47206        38.900
C23  23717422.060   123502839.43008        49.900    23717410.140   100356109.73807        47.000
C25  24551077.700   127843921.17607        46.250    24551073.300   103883643.06407        43.600
C28  26221241.200   136540869.01506        38.550    26221238.120   110950643.10306        36.450
C34  22359562.760   116432146.88108        52.600    22359559.800    94610687.04808        49.750
C37  25995544.860   135365618.40506        41.000    25995544.500   109995652.02106        38.750
C42  25517916.540   132878502.25107        43.850    25517921.080   107974693.20706        40.750
C43  22574242.060   117550032.39008        53.050    22574238.580    95519023.22108        48.700
C44  25942857.260   135091421.80306        40.800    25942852.960   109772821.00006        36.250
C58  32534076.080   169413483.26907        46.550
> 2021 12 21 00 00 30.0000000  0 38
G01  24579530.600   129166303.65106        41.650    24579534.120   100649083.26406        40.650    24579533.940   100649083.26206        37.100    24579532.340    96455371.10406        37.750
G07  23818981.960   125169581.98207        43.150    23818981.720    97534740.49606        41.850    23818981.420    97534728.48206        41.750
G08  20971651.880   110206794.01508        52.500    20971654.500    85875445.70708        53.000    20971653.760    85875442.69308        50.450    20971652.000    82297293.44108        50.150
G10  21743409.120   114262412.21408        51.850    21743411.040    89035662.26608        51.700    21743411.100    89035666.26708        52.000    21743408.920    85325833.46708        48.600
G16  21403271.620   112474959.73308        51.250                                                    21403270.840    87642813.93608        48.850
G18  25122366.420   132018923.78806        38.550    25122366.820   102871892.52906        37.500    25122367.140   102871894.52205        35.300    25122369.740    98585576.42306        39.000
G21  22089560.180   116081443.88208        48.200                                                    22089559.240    90453071.81807        43.800
G23  22703159.960   119305921.32707        45.850    22703160.420    92965662.60508        48.650    22703160.380    92965662.60307        44.600    22703163.060    89092105.96507        44.800
G26  23999197.280   126116682.79907        42.800    23999200.540    98272771.74007        43.650    23999200.260    98272776.73207        42.750    23999199.260    94178069.82306        41.550
G30  25062448.780   131704052.97706        40.000    25062451.040   102626541.91406        41.250    25062450.700   102626542.92406        38.650    25062449.760    98350433.01406        38.650
R04  22907157.740   122666807.99606        38.800    22907160.440    95407523.84606        38.000    22907160.320    95407518.83806        37.100
R05  22081472.420   118038123.70607        43.850    22081476.740    91807451.78107        44.800    22081476.800    91807442.78507        45.450
R10  21698813.560   115666901.49707        47.400
R12  22691579.780   121214337.54407        42.200    22691583.820    94277829.84906        41.750    22691583.960    94277830.84907        42.600
R20  20785844.540   111151267.36806        36.750    20785849.660    86451011.37008        48.800    20785850.780    86451023.38308        48.800
R21  20233506.540   108273606.25608        49.700    20233509.620    84212823.01508        49.150    20233509.740    84212825.02008        49.650    20233500.560    81126736.92209        55.850
E02  27673069.340   145422960.46046        40.300    27673071.620   108595073.61806        36.600    27673069.320   118038116.61905        34.800    27673071.100   111427988.03007        43.150    27673072.240   110011529.21307        43.700
E11  22400183.580   117713769.97348        50.850    22400183.040    87903143.33407        45.050    22400179.940    95546876.60307        45.400    22400182.740    90196271.85608        52.300    22400184.080    89049722.98308        52.750
E12  22579317.760   118655126.40148        49.650    22579317.360    88606101.74807        44.950    22579314.020    96310963.92807        45.400    22579318.060    90917599.41908        52.900    22579318.560    89761865.46908        53.150
E24  24786645.280   130254729.48548        52.850    24786647.360    97268167.29707        47.250    24786644.780   105726247.20107        46.700    24786646.800    99805594.10908        53.900    24786648.060    98536874.09409        54.450
E25  24411566.220   128283652.43448        52.600    24411569.780    95796250.44907        47.700    24411564.640   104126333.74607        47.500    24411569.340    98295283.26509        55.000    24411570.540    97045754.74809        55.350
E31  28082632.000   147575287.24246        40.650    28082636.880   110202364.50005        35.000    28082631.280   119785072.65705        33.200    28082636.840   113077216.52906        41.950    28082637.480   111639789.91707        42.600
E33  28234918.560   148375535.73146        39.850    28234922.100   110799888.85905        35.250    28234919.880   120434678.09305        33.200    28234921.000   113690433.29606        40.750    28234922.120   112245207.97406        41.700
E36  27669769.580   145405625.70646        41.700    27669775.040   108582138.69206        37.650    27669769.520   118024042.34006        36.400    27669774.040   111414717.59007        45.550    27669775.240   109998431.53107        45.650
C05  40593279.720                          34.550                                                    40593279.100   163452311.21206        39.400
C11  21914284.620   114113458.73208        50.300    21914278.320    92726521.58308        50.250    21914284.520    88239769.39709        55.350
C14  26397338.920   137457867.49706        38.650    26397329.640   111695748.86906        37.150    26397337.560   106291145.58505        35.350
C21  24419902.480   127160854.11707        47.400    24419894.020   103328572.80707        44.300
C22  26050844.060   135653602.40006        39.400    26050836.360   110229628.88206        37.550
C23  23720803.020   123520445.16908        49.700    23720791.200   100370415.84107        46.950
C25  24567880.840   127931419.67307        45.400    24567876.280   103954742.77607        43.700
C28  26206371.740   136463438.63706        39.450    26206368.320   110887724.60606        38.050
C34  22366472.240   116468126.56708        52.550    22366469.300    94639923.50308        49.800
C37  25984096.460   135306003.58706        41.250    25984096.140   109947210.14506        38.600
C42  25500275.920   132786642.49207        43.250    25500280.880   107900049.63806        40.950
C43  22567272.260   117513738.77108        53.050    22567268.800    95489531.68908        48.750
C44  25957870.140   135169600.87306        39.400    25957867.000   109836347.82906        37.250
C58  32521634.680   169348697.68907        45.750
> 2021 12 21 00 01  0.0000000  0 38
G01  24558925.840   129058023.66106        39.300    24558929.260   100564709.31406        39.850    24558929.280   100564709.31206        37.600    24558926.920    96374512.68306        38.300
G07  23819409.520   125171828.15507        43.950    23819409.220    97536490.73206        41.900    23819408.920    97536478.72707        42.550
G08  20962970.940   110161175.38308        52.800    20962973.560    85839898.71908        52.950    20962972.820    85839895.70708        50.250    20962971.080    82263227.57908        51.000
G10  21740661.020   114247970.91908        52.250    21740662.900    89024409.31808        51.250    21740662.960    89024413.31608        52.200    21740660.820    85315049.38908        49.450
G16  21417475.840   112549603.10608        52.100                                                    21417475.120    87700977.60308        48.300
G18  25141856.200   132121343.21806        39.350    25141856.860   102951699.80207        42.750    25141856.660   102951701.78006        38.200    25141859.980    98662058.43005        33.200
G21  22077164.960   116016307.21308        48.650                                                    22077163.940    90402315.98607        44.200
G23  22712967.200   119357459.11607        45.850    22712967.740    93005821.91008        48.400    22712967.780    93005821.90807        44.700    22712970.440    89130591.97607        45.750
G26  24019986.440   126225929.23207        43.550    24019989.460    98357898.78207        42.050    24019989.180    98357903.78207        43.300    24019988.320    94259649.93606        41.600
G30  25055595.640   131668039.45206        39.200    25055597.840   102598479.43506        40.850    25055597.500   102598480.42006        38.300    25055596.700    98323539.79206        39.550
R04  22914143.540   122704212.91606        40.850    22914144.600    95436616.66606        40.400    22914144.440    95436611.66406        40.800
R05  22069571.720   117974507.01907        44.100    22069575.700    91757972.15007        45.000    22069575.820    91757963.14807        45.650
R10  21721327.920   115786915.23308        48.700
R12  22672607.980   121112993.34507        43.050    22672611.960    94199006.58107        42.350    22672612.060    94199007.60007        43.150
R20  20798579.020   111219363.43806        37.100    20798584.040    86503974.98608        49.000    20798585.200    86503986.98508        49.250
R21  20226958.500   108238566.14608        49.650    20226961.540    84185569.59608        49.550    20226961.720    84185571.60208        49.800    20226952.500    81100482.24309        54.800
E02  27657454.080   145340902.20446        40.950    27657456.500   108533796.33306        36.900    27657453.980   117971510.89405        34.900    27657456.140   111365112.23007        42.850    27657457.000   109949452.66707        42.900
E11  22394259.440   117682638.49748        51.200    22394258.940    87879895.81207        46.050    22394255.780    95521607.56307        45.650    22394258.640    90172417.87208        51.800    22394259.940    89026172.23008        51.850
E12  22587597.920   118698639.21148        50.000    22587597.460    88638595.07007        45.900    22587594.280    96346282.76107        45.400    22587598.160    90950940.39408        52.150    22587598.760    89794782.62008        52.050
E24  24798907.960   130319170.08848        52.850    24798910.160    97316288.50908        48.300    24798907.400   105778552.88707        46.350    24798909.400    99854970.66908        53.700    24798910.780    98585622.98608        53.800
E25  24406843.020   128258831.81448        52.950    24406846.560    95777715.57408        48.600    24406841.440   104106187.14307        47.600    24406846.160    98276264.87109        54.350    24406847.340    97026978.11409        54.400
E31  28100828.200   147670907.14547        42.900    28100831.720   110273769.09305        34.900    28100827.320   119862686.21206        36.550    28100833.180   113150483.65307        42.550    28100833.520   111712125.71506        41.800
E33  28249546.340   148452404.31946        40.250    28249549.340   110857290.69206        38.050    28249546.040   120497051.49115        32.050    28249547.000   113749332.68306        39.550    28249549.720   112303358.61006        40.700
E36  27655890.600   145332692.95847        43.550    27655896.160   108527675.95806        38.850    27655891.000   117964843.72506        36.700    27655895.520   111358834.11807        44.950    27655896.640   109943258.43607        44.950
C05  40593216.440                          34.950                                                    40593215.960   163452059.43716        38.700
C11  21915066.940   114117532.47208        50.600    21915060.680    92729831.84008        50.200    21915066.820    88242919.47709        54.750
C14  26378719.100   137360917.81905        34.650    26378711.200   111616969.51204        29.800    26378719.300   106216178.17907        43.600
C21  24412749.720   127123607.95207        47.050    24412741.240   103298307.25707        44.000
C22  26058773.060   135694888.28907        43.900    26058762.900   110263177.13506        37.750
C23  23724278.040   123538540.63708        49.650    23724266.360   100385119.88307        46.950
C25  24584720.260   128019107.62107        44.650    24584715.940   104025996.39507        44.000
C28  26191509.880   136386049.85206        38.100    26191506.720   110824839.93006        37.000
C34  22373417.240   116504290.98408        52.550    22373414.280    94669310.05408        49.650
C37  25972720.860   135246767.68806        41.300    25972720.520   109899076.11506        38.700
C42  25482651.340   132694868.06907        42.200    25482656.740   107825475.38306        41.100
C43  22560339.980   117477640.50208        52.950    22560336.540    95460198.89708        48.750
C44  25972886.240   135247792.00407        42.000    25972882.980   109899884.52705        35.950
C58  32509215.800   169284029.35807        46.500
> 2021 12 21 00 01 30.0000000  0 38
G01  24538345.180   128949871.59706        39.600    24538348.260   100480434.94306        38.850    24538348.440   100480434.92906        36.700    24538346.600    96293749.81206        40.550
G07  23819936.420   125174597.05907        43.150    23819936.120    97538648.29207        42.050    23819935.940    97538636.29807        42.100
G08  20954339.260   110115815.54908        52.100    20954341.880    85804553.38508        52.900    20954341.140    85804550.37808        50.850    20954339.400    82229354.97808        50.400
G10  21738022.600   114234105.93708        51.850    21738024.500    89013605.44508        51.350    21738024.540    89013609.43808        51.900    21738022.380    85304695.66808        48.900
G16  21431759.160   112624662.26208        51.100                                                    21431758.460    87759465.24908        48.650
G18  25161343.260   132223747.83705        34.550    25161344.060   103031495.51606        37.450    25161344.040   103031497.51705        34.700    25161346.340    98738529.50506        39.350
G21  22064831.540   115951494.28508        48.650                                                    22064830.760    90351812.41007        45.550
G23  22722874.700   119409523.22207        46.250    22722875.200    93046391.33807        47.550    22722875.020    93046391.33607        44.950    22722877.840    89169471.01207        44.800
G26  24040795.760   126335282.72606        41.650    24040798.540    98443109.31107        42.550    24040798.120    98443114.30506        41.200    24040797.480    94341310.01006        40.700
G30  25048837.880   131632527.38906        38.750    25048840.200   102570807.70006        40.650    25048839.460   102570808.67206        37.350    25048838.940    98297021.06206        38.700
R04  22921266.480   122742360.71006        40.250    22921269.500    95466287.10207        42.350    22921269.180    95466282.09607        42.900
R05  22057789.420   117911524.48807        43.900    22057793.340    91708985.76007        45.300    22057793.560    91708976.75807        45.650
R10  21743906.500   115907271.00708        48.050
R12  22653725.100   121012124.56307        43.750    22653729.180    94120553.08007        42.350    22653729.160    94120554.07407        42.500
R20  20811347.180   111287640.98006        36.900    20811352.280    86557079.74708        48.800    20811353.360    86557091.74408        49.450
R21  20220471.920   108203854.95108        49.700    20220474.940    84158572.00408        49.700    20220475.080    84158574.00608        50.100    20220465.880    81074474.00209        54.350
E02  27641866.940   145258991.40346        40.900    27641869.360   108472629.17706        36.550    27641866.680   117905024.85105        35.350    27641869.060   111302349.40107        42.100    27641870.000   109887487.67407        42.250
E11  22388380.640   117651745.07648        50.550    22388380.160    87856826.03607        45.350    22388377.020    95496531.72407        45.750    22388379.900    90148746.28808        51.350    22388381.120    89002801.55308        51.300
E12  22595908.720   118742313.15148        49.400    22595908.260    88671208.72307        45.300    22595905.060    96381732.38407        45.450    22595908.880    90984404.84408        51.700    22595909.660    89827821.67608        51.500
E24  24811230.000   130383923.05148        52.200    24811232.200    97364642.98007        47.250    24811229.520   105831112.10307        46.850    24811231.640    99904586.55708        53.550    24811232.900    98634608.15908        53.350
E25  24402195.540   128234408.99748        52.550    24402199.040    95759477.75407        47.850    24402193.940   104086363.42007        47.650    24402198.660    98257551.28308        53.950    24402199.840    97008502.40808        53.850
E31  28119029.820   147766558.32946        40.500    28119033.880   110345196.80306        36.200    28119030.000   119940325.07505        34.050    28119034.800   113223774.82806        39.300    28119035.280   111784485.21406        39.950
E33  28264167.380   148529237.31046        41.000    28264169.900   110914665.95805        35.050    28264167.520   120559415.90606        36.250    28264169.180   113808204.66607        43.050    28264170.920   112361482.20307        42.750
E36  27642033.260   145259871.00247        43.800    27642038.720   108473295.93006        38.050    27642033.540   117905735.00806        37.650    27642038.320   111303035.48507        44.350    27642039.180   109888169.10307        44.250
C05                                                                                                  40593153.700   163451808.31906        38.550
C11  21915889.740   114121816.33608        51.000    21915883.360    92733312.82808        50.100    21915889.520    88246232.01909        54.450
C14  26360083.100   137263874.86506        39.550    26360075.120   111538114.16906        38.500    26360083.740   106141138.53406        40.200
C21  24405682.880   127086810.35807        47.700    24405674.440   103268406.19407        44.000
C22  26066789.620   135736626.22107        42.300    26066778.740   110297092.64106        39.150
C23  23727847.820   123557129.41608        50.100    23727836.140   100400224.76907        46.850
C25  24601596.440   128106986.90807        45.300    24601592.260   104097405.49107        44.150
C28  26176656.840   136308707.00606        39.050    26176653.860   110761992.58906        36.950
C34  22380398.520   116540644.08108        52.850    22380395.540    94698849.90208        49.650
C37  25961419.220   135187916.60706        41.000    25961418.740   109851254.80706        38.900
C42  25465043.920   132603185.69507        42.500    25465050.420   107750975.98006        40.400
C43  22553446.060   117441741.96308        53.050    22553442.620    95431028.38508        48.700
C44  25987905.640   135325999.38306        39.700    25987900.880   109963434.47605        35.350
C58  32496820.320   169219482.72407        46.050
> 2021 12 21 00 02  0.0000000  0 38
G01  24517788.720   128841847.84206        37.500    24517792.240   100396260.61606        41.800    24517792.280   100396260.62806        37.250    24517790.580    96213082.74006        38.100
G07  23820562.440   125177887.11107        43.700    23820562.260    97541211.94007        42.250    23820561.980    97541199.95006        41.900
G08  20945756.900   110070715.00108        52.200    20945759.520    85769410.10308        53.000    20945758.780    85769407.09508        50.900    20945757.000    82195675.99508        50.150
G10  21735493.780   114220816.81608        52.400    21735495.680    89003250.29508        51.700    21735495.720    89003254.28908        52.550    21735493.540    85294772.00208        48.600
G16  21446121.140   112700134.84508        50.950                                                    21446120.240    87818275.04208        48.350
G18  25180826.680   132326135.59216        39.600    25180827.580   103111279.20616        41.100    25180827.500   103111279.21316        38.200    25180830.420    98814987.65506        37.250
G21  22052559.520   115887004.38508        48.300                                                    22052558.860    90301560.54807        45.250
G23  22732881.860   119462110.88207        46.100    22732882.220    93087368.75807        47.800    22732881.900    93087368.75007        45.050    22732884.680    89208741.04207        44.450
G26  24061624.700   126444740.20706        41.100    24061627.620    98528400.86607        42.800    24061627.300    98528405.85806        41.300    24061626.760    94423047.73306        40.850
G30  25042175.580   131597516.94206        39.550    25042177.960   102543526.82206        41.000    25042177.480   102543527.79906        37.200    25042176.620    98270876.85806        38.450
R04  22928528.760   122781248.96106        40.400    22928531.760    95496533.52306        41.100    22928531.560    95496528.53606        41.750
R05  22046126.040   117849178.36007        42.900    22046130.420    91660494.34607        45.450    22046130.440    91660485.34807        45.950
R10  21766548.080   116027963.20208        48.150
R12  22634931.720   120911734.27007        43.600    22634935.880    94042471.74607        42.650    22634935.900    94042472.73207        44.350
R20  20824148.720   111356097.67906        36.800    20824153.900    86610323.83408        48.700    20824155.000    86610335.84508        49.000
R21  20214046.520   108169471.51408        50.300    20214049.620    84131829.33508        49.650    20214049.720    84131831.33908        50.050    20214040.560    81048711.34009        54.900
E02  27626308.080   145177228.77746        40.550    27626310.480   108411572.70906        36.750    27626307.740   117838659.07805        35.200    27626310.040   111239700.13607        42.600    27626311.120   109825634.80607        42.900
E11  22382546.900   117621088.51848        50.600    22382546.360    87833933.15607        45.200    22382543.260    95471648.15807        45.900    22382546.140    90125256.19608        51.600    22382547.360    88979610.06408        51.900
E12  22604249.820   118786146.27748        49.350    22604249.460    88703941.25807        45.000    22604246.180    96417311.21307        45.600    22604249.900    91017991.26108        51.850    22604250.820    89860981.14908        51.900
E24  24823611.080   130448986.28348        52.200    24823613.140    97413229.15807        46.900    24823610.620   105883923.16507        46.900    24823612.800    99954440.19208        53.350    24823613.980    98683828.06208        53.600
E25  24397623.780   128210384.03448        52.650    24397627.240    95741537.03107        47.650    24397622.160   104066862.63307        47.850    24397626.880    98239142.54409        54.150    24397628.040    96990327.67709        54.400
E31  28137237.380   147862238.29446        41.750    28137241.180   110416646.01205        32.550    28137236.880   120018002.39415        35.600    28137241.200   113297087.99906        41.950    28137243.020   111856866.41106        41.700
E33  28278781.340   148606033.25046        40.500    28278783.940   110972013.63205        35.350    28278781.480   120621750.20505        35.550    28278784.140   113867048.22207        42.550    28278784.600   112419577.79506        41.950
E36  27628196.880   145187159.11547        42.350    27628201.360   108418998.10206        37.550    27628196.960   117846715.64206        37.500    27628201.660   111247321.20607        43.900    27628202.780   109833163.04507        44.150
C05  40593092.580   211378885.44715        35.800                                                    40593092.160   163451560.28006        38.300
C11  21916752.680   114126309.23008        50.800    21916746.160    92736963.66308        49.850    21916752.320    88249706.20709        54.450
C14  26341429.040   137166739.52905        33.950    26341421.660   111459183.89405        32.000    26341428.880   106066027.31106        38.050
C21  24398702.140   127050461.89107        47.900    24398693.880   103238870.11007        43.750
C22  26074890.500   135778814.18807        42.100    26074882.060   110331373.73506        39.550
C23  23731512.120   123576209.73408        49.700    23731500.320   100415729.09307        46.700
C25  24618508.760   128195054.16607        45.200    24618504.700   104168967.33007        43.950
C28  26161812.900   136231409.43406        40.100    26161809.420   110699181.95406        36.600
C34  22387415.780   116577184.54008        52.700    22387412.760    94728542.01408        49.300
C37  25950191.560   135129451.15106        41.650    25950191.080   109803746.81906        38.500
C42  25447454.860   132511597.12706        41.950    25447462.020   107676552.75206        40.700
C43  22546590.320   117406042.33108        52.950    22546586.860    95402019.51808        48.450
C44  26002927.300   135404221.93906        40.350    26002922.960   110026996.65306        36.800
C58  32484448.060   169155057.02807        46.600
> 2021 12 21 00 02 30.0000000  0 38
G01  24497256.420   128733952.24206        38.800    24497260.620   100312186.23106        40.250    24497260.820   100312186.24906        37.500    24497258.240    96132511.38606        38.950
G07  23821287.300   125181696.07607        43.550    23821287.040    97544179.95807        43.100    23821286.740    97544167.95007        42.100
G08  20937223.640   110025872.55608        52.600    20937226.300    85734467.95008        53.200    20937225.580    85734464.94108        50.550    20937223.760    82162189.76308        50.950
G10  21733074.360   114208102.75208        52.650    21733076.280    88993343.24208        51.500    21733076.340    88993347.23908        52.550    21733074.120    85285277.73908        49.300
G16  21460561.100   112776017.66008        51.350                                                    21460560.180    87877404.50408        48.000
G18                                                                                                                                                  25200310.200    98891430.28616        36.950
G21  22040348.860   115822836.45508        49.250                                                    22040347.820    90251559.55407        44.150
G23  22742988.020   119515218.90907        45.200    22742988.340    93128751.63808        48.400    22742988.020    93128751.63007        45.100    22742990.760    89248399.62607        45.600
G26  24082472.560   126554298.21106        41.100    24082475.620    98613770.70507        42.450    24082475.280    98613775.69906        41.050    24082474.160    94504860.52106        39.400
G30  25035608.720   131563007.57306        39.100    25035611.100   102516636.39906        40.650    25035610.500   102516637.38106        37.850    25035609.700    98245106.86206        39.400
R04  22935928.240   122820874.72506        40.700    22935931.320    95527353.58706        40.700    22935931.300    95527348.58106        40.700
R05  22034582.180   117787470.96807        43.200    22034586.760    91612499.72807        45.300    22034586.860    91612490.73407        45.950
R10  21789251.520   116148986.01107        46.000
R12  22616228.560   120811825.08707        44.100    22616232.700    93964764.60407        42.450    22616232.740    93964765.61507        43.400
R20  20836983.420   111424730.23006        36.950    20836988.420    86663704.69708        48.700    20836989.760    86663716.70408        48.400
R21  20207682.140   108135413.89108        49.800    20207685.160    84105340.07208        49.650    20207685.240    84105342.07808        50.050    20207676.040    81023192.80609        55.350
E02  27610777.440   145095614.63746        41.300    27610779.860   108350627.09506        37.300    27610777.360   117772413.84905        35.300    27610779.460   111177164.63407        43.100    27610780.460   109763894.25107        43.350
E11  22376757.880   117590667.08448        50.750    22376757.420    87811215.85707        46.000    22376754.300    95446955.43507        45.900    22376757.160    90101946.27208        52.200    22376758.360    88956596.45708        52.300
E12  22612620.820   118830136.20348        49.650    22612620.620    88736790.87407        45.950    22612617.120    96453017.32207        45.550    22612620.840    91051697.82308        52.300    22612621.820    89894259.23408        52.400
E24  24836050.720   130514357.19348        53.050    24836052.880    97462045.08907        47.750    24836050.180   105936983.95707        46.900    24836052.340   100004529.58908        53.650    24836053.620    98733280.72908        53.850
E25  24393127.620   128186756.48248        52.800    24393131.060    95723893.07408        48.450    24393126.020   104047684.42207        47.850    24393130.720    98221038.31309        54.800    24393131.880    96972453.58209        54.900
E31  28155449.200   147957944.24346        38.850    28155451.500   110488040.76515        34.600    28155449.080   120095685.70905        35.750    28155453.980   113370421.00006        41.300    28155455.260   111929267.23406        40.750
E33  28293387.760   148682790.28546        40.250    28293391.220   111029332.11606        38.900                                                    28293389.340   113925862.03206        37.200    28293390.640   112477643.96506        39.950
E36  27614380.720   145114556.10247        42.100    27614385.560   108364781.60806        39.050    27614380.920   117787784.64906        37.300    27614385.340   111191690.35207        43.750    27614386.980   109778239.37307        44.150
C05                                                                                                  40593030.980   163451314.17506        39.000
C11  21917655.300   114131009.44308        50.450    21917648.740    92740782.97608        50.150    21917654.900    88253340.71009        55.150
C14  26322757.620   137069512.54006        40.800    26322749.260   111380179.01405        33.650    26322757.500   105990845.42307        44.350
C21  24391807.960   127014562.78707        47.950    24391799.680   103209699.14907        44.150
C22  26083078.760   135821449.39107        43.750    26083069.500   110366018.32406        37.200
C23  23735270.260   123595779.42308        50.000    23735258.440   100431631.05507        46.950
C25  24635456.340   128283305.56307        45.550    24635452.440   104240678.79207        44.150
C28  26146977.040   136154155.70206        40.000    26146973.720   110636407.06206        36.600
C34  22394468.680   116613910.59108        52.750    22394465.620    94758384.93008        49.650
C37  25939038.020   135071371.54106        41.750    25939037.460   109756552.36806        39.250
C42  25429883.900   132420103.33206        41.950    25429891.360   107602206.58706        40.250
C43  22539772.560   117370540.34608        53.250    22539769.040    95373171.23908        48.800
C44  26017952.200   135482457.93006        40.300    26017947.960   110090569.77705        35.900
C58  32472098.700   169090751.04807        46.850
> 2021 12 21 00 03  0.0000000  0 38
G01  24476749.120   128626184.93606        39.850    24476752.640   100228211.63106        37.350    24476752.460   100228211.61806        37.300    24476750.840    96052035.81806        41.550
G07  23822110.400   125186021.88007        43.150    23822110.260    97547550.70207        42.700    23822109.960    97547538.68807        42.050
G08  20928739.520   109981288.12308        52.350    20928742.160    85699726.83808        53.350    20928741.460    85699723.82608        50.900    20928739.640    82128896.20108        50.750
G10  21730764.220   114195962.88208        52.350    21730766.160    88983883.61508        51.700    21730766.240    88983887.60808        52.350    21730763.920    85276212.26108        49.100
G16  21475078.500   112852307.35808        50.650                                                    21475077.820    87936851.01208        49.250
G18  25219782.740   132530844.60816        39.550    25219783.100   103270792.85416        38.700    25219783.460   103270821.83416        36.550    25219785.880    98967856.79206        39.800
G21  22028199.240   115758989.64808        49.000                                                    22028198.400    90201808.81507        45.600
G23  22753192.580   119568843.98907        46.050    22753192.880    93170537.40308        48.400    22753192.760    93170537.40107        45.050    22753195.680    89288444.31707        45.400
G26  24103339.140   126663953.16007        42.100    24103341.960    98699216.08506        39.850    24103341.260    98699221.09107        42.750    24103340.160    94586745.73206        40.550
G30  25029137.060   131528998.73406        37.800    25029139.500   102490136.00406        41.700    25029138.840   102490136.99506        37.700    25029138.000    98219710.65806        39.150
R04  22943465.660   122861234.60806        40.500    22943468.280    95558744.56606        40.550    22943468.240    95558739.54906        39.950
R05  22023158.240   117726404.40507        43.550    22023163.060    91565003.52707        45.600    22023162.960    91564994.53107        46.350
R10  21812016.000   116270333.79807        46.300
R12  22597615.840   120712399.26707        43.800    22597620.080    93887433.41307        42.750    22597620.060    93887434.40907        42.950
R20  20849850.480   111493536.19806        36.700    20849855.440    86717220.42708        48.700    20849856.820    86717232.43008        48.750
R21  20201378.240   108101680.30708        50.150    20201381.200    84079102.84008        49.550    20201381.280    84079104.84008        50.050    20201372.080    80997917.06809        55.400
E02  27595275.020   145014149.27246        40.750    27595277.420   108289792.56906        37.400    27595275.040   117706289.39505        35.000    27595277.000   111114743.14407        42.350    27595278.160   109702266.23707        43.300
E11  22371013.280   117560479.00248        50.350    22371012.860    87788672.79907        45.700    22371009.680    95422452.12007        45.800    22371012.540    90078815.14408        51.800    22371013.760    88933759.36308        52.400
E12  22621021.220   118874280.47148        49.300    22621021.200    88769755.75107        45.550    22621017.600    96488848.70907        45.400    22621021.200    91085522.65608        51.850    22621022.200    89927654.09408        52.350
E24  24848548.540   130580033.21848        52.150    24848550.560    97511088.87007        47.350    24848547.900   105990292.41307        46.800    24848549.960   100054852.78108        53.150    24848551.380    98782964.21808        53.850
E25  24388707.000   128163525.87848        52.700    24388710.420    95706545.54308        48.200    24388705.320   104028828.41007        47.700    24388710.060    98203238.23109        54.400    24388711.260    96954879.77909        55.000
E31  28173666.080   148053673.18546        40.700    28173669.000   110559526.57116        36.050    28173665.260   120173384.77115        31.600    28173670.380   113443771.81106        40.800    28173671.980   112001685.58106        41.800
E33  28307987.140   148759506.31947        42.400    28307989.940   111086620.03306        36.200    28307987.620   120746319.55416        36.000    28307987.240   113984644.50407        42.700    28307989.560   112535679.16907        43.250
E36  27600585.380   145042060.89347        43.200    27600590.480   108310645.63006        39.450    27600585.600   117728941.15006        36.950    27600589.700   111136142.08507        44.550    27600591.360   109723397.24207        45.300
C05  40592970.640                          34.950                                                    40592970.160   163451068.93706        38.250
C11  21918597.220   114135915.33208        50.000    21918590.880    92744769.39808        50.100    21918597.000    88257134.25109        54.700
C14  26304068.280   136972194.72905        35.000    26304061.000   111301100.48206        37.400    26304068.560   105915593.26706        39.700
C21  24385000.320   126979113.07708        48.000    24384991.960   103180893.37107        44.150
C22  26091351.860   135864529.32106        40.550    26091340.720   110401024.33506        36.950
C23  23739122.000   123615836.26208        49.850    23739110.120   100447928.87707        46.950
C25  24652438.680   128371737.28007        44.800    24652434.620   104312536.80407        43.050
C28  26132149.360   136076944.66206        39.000    26132146.160   110573666.80306        37.250
C34  22401556.800   116650820.48208        52.300    22401553.780    94788377.23808        49.650
C37  25927958.480   135013678.05506        40.750    25927958.020   109709671.69406        39.400
C42  25412331.700   132328705.55007        42.650    25412338.520   107527938.40306        40.350
C43  22532992.480   117335234.66708        53.150    22532988.900    95344482.48508        48.800
C44  26032978.820   135560705.89506        38.950    26032973.920   110154152.66005        35.350
C58  32459772.140   169026563.50907        46.600
> 2021 12 21 00 03 30.0000000  0 38
G01  24456266.200   128518547.11906        38.700    24456269.740   100144338.07006        41.100    24456269.180   100144338.05406        38.900    24456268.400    95971657.04006        40.300
G07  23823031.780   125190863.75407        43.250    23823031.640    97551323.58907        42.250    23823031.360    97551311.58506        41.550
G08  20920304.680   109936962.60008        53.050    20920307.260    85665187.45908        53.150    20920306.600    85665184.45008        50.250    20920304.740    82095795.96108        51.250
G10  21728563.460   114184397.76308        52.650    21728565.400    88974871.84208        51.750    21728565.480    88974875.83708        52.500    21728563.080    85267575.98108        49.600
G16  21489673.100   112929002.33608        51.650                                                    21489672.340    87996613.32807        47.800
G18  25239254.620   132633165.93906        37.300    25239255.020   103350523.71706        40.700    25239254.280   103350552.72916        36.250    25239257.060    99044265.65105        33.400
G21  22016110.800   115695464.15408        49.300                                                    22016109.840    90152308.45907        44.100
G23  22763495.200   119622984.35807        46.050    22763495.480    93212724.70608        48.250    22763495.440    93212724.69807        44.200    22763498.560    89328873.81007        45.850
G26  24124223.960   126773702.99406        40.900    24124226.640    98784735.45907        42.450    24124225.880    98784740.45906        40.900    24124225.160    94668701.74106        40.150
G30  25022760.920   131495491.32406        39.950    25022763.180   102464026.34706        40.800    25022762.540   102464027.34606        37.900    25022761.860    98194688.90506        39.950
R04  22951139.240   122902327.30106        40.500    22951141.360    95590705.59106        39.850    22951141.040    95590700.58006        40.150
R05  22011854.940   117665982.01007        43.950    22011859.800    91518008.34307        45.450    22011859.780    91517999.34107        46.050
R10  21834840.940   116392003.25507        45.750
R12  22579094.320   120613460.84507        42.800    22579098.480    93810481.31507        42.650    22579098.620    93810482.31607        43.800
R20  20862749.780   111562514.41305        35.600    20862754.600    86770870.14608        48.250    20862755.900    86770882.14808        48.200
R21  20195134.760   108068270.22208        49.450    20195137.720    84053117.22108        49.550    20195137.800    84053119.22008        50.000    20195128.620    80972883.71309        55.850
E02  27579801.320   144932834.42246        41.950    27579803.860   108229070.43906        38.200    27579801.180   117640287.08305        35.250    27579803.280   111052436.95207        42.900    27579804.400   109640752.08907        43.700
E11  22365313.020   117530524.00948        50.950    22365312.620    87766303.81707        46.250    22365309.480    95398137.99807        46.050    22365312.260    90055862.61908        51.950    22365313.520    88911098.61008        52.700
E12  22629450.780   118918578.16148        49.550    22629450.920    88802835.18907        46.150    22629447.340    96524804.62107        45.650    22629450.740    91119465.03908        52.050    22629451.760    89961165.00308        52.700
E24  24861104.100   130646013.19948        52.450    24861106.320    97560359.63808        48.050    24861103.580   106043847.59207        46.800    24861105.540   100105408.87008        53.600    24861107.000    98832877.64309        54.400
E25  24384362.100   128140693.22248        53.000    24384365.520    95689495.17708        48.750    24384360.440   104010295.40307        47.850    24384365.140    98185743.07309        54.600    24384366.340    96937607.01309        55.300
E31  28191886.000   148149423.94346        37.350    28191890.340   110631028.63905        31.950    28191885.660   120251104.46216        36.150    28191891.120   113517139.14007        42.650    28191893.080   112074120.26307        42.400
E33  28322577.860   148836181.05746        38.200    28322579.160   111143884.16715        32.300    28322580.540   120808555.45305        35.800    28322579.140   114043395.20907        44.400    28322580.560   112593683.04307        43.950
E36  27586810.660   144969673.78647        42.800    27586815.900   108256590.31506        39.600    27586810.780   117670185.36006        36.650    27586814.980   111080676.63707        44.950    27586816.320   109668636.85807        45.750
C05  40592909.960   211377934.09815        35.700                                                    40592909.460   163450824.61006        38.950
C11  21919578.640   114141026.67708        50.350    21919572.500    92748922.77808        50.300    21919578.580    88261086.65709        54.900
C14  26285362.440   136874788.37306        39.350    26285354.800   111221949.90005        31.850    26285361.680   105840272.50806        40.000
C21  24378279.160   126944114.37707        47.350    24378270.920   103152454.06007        44.500
C22  26099709.740   135908052.84407        43.600    26099699.920   110436390.74406        39.350
C23  23743067.140   123636379.49208        50.000    23743055.280   100464621.91607        47.050
C25  24669455.060   128460346.95007        43.850    24669451.060   104384539.43407        42.550
C28  26117330.000   135999776.47506        40.850    26117326.840   110510961.35606        36.850
C34  22408680.120   116687913.89508        52.550    22408677.200    94818518.66408        49.850
C37  25916953.420   134956372.33006        41.550    25916952.920   109663106.10506        39.750
C42  25394799.220   132237406.30907        44.600    25394805.440   107453750.27906        41.450
C43  22526250.160   117300125.51708        53.250    22526246.540    95315953.42108        48.900
C44  26048008.020   135638965.62107        42.050    26048003.060   110217745.08306        37.550
C58  32447468.400   168962494.63007        46.550
> 2021 12 21 00 04  0.0000000  0 38
G01  24435810.020   128411047.72006        39.500    24435813.700   100060572.37606        41.650    24435813.480   100060572.38106        38.800    24435812.020    95891381.50506        38.500
G07  23824052.760   125196228.81707        42.900    23824052.580    97555504.16107        42.550    23824052.200    97555492.15106        41.350
G08  20911920.720   109892904.55608        52.700    20911923.300    85630856.52008        53.350    20911922.660    85630853.50808        50.750    20911920.740    82062895.47608        50.500
G10  21726473.560   114173415.38508        52.650    21726475.520    88966314.14708        51.900    21726475.620    88966318.14608        52.550    21726473.160    85259374.86008        48.750
G16  21504345.880   113006108.04208        51.750                                                    21504345.060    88056695.69608        48.100
G18  25258721.380   132735469.95806        40.200    25258721.940   103430241.06306        38.400    25258721.460   103430270.01505        35.350    25258725.240    99120661.44916        38.500
G21  22004084.820   115632267.65508        49.400                                                    22004083.700    90103064.45407        44.700
G23  22773896.760   119677645.64907        45.650    22773897.180    93255317.91507        47.650    22773897.000    93255317.91907        44.150    22773900.040    89369692.30407        44.700
G26  24145127.660   126883553.15506        41.950    24145130.840    98870332.92507        42.350    24145130.640    98870337.93106        41.700    24145127.900    94750732.67406        37.600
G30  25016481.760   131462493.79206        40.200    25016484.060   102438313.98206        41.250    25016483.340   102438314.96906        39.350    25016482.780    98170047.91706        39.000
R04  22958951.160   122944159.04406        40.300    22958953.500    95623241.41606        41.200    22958953.280    95623236.42006        41.200
R05  22000674.420   117606214.81207        43.900    22000679.040    91471522.75707        45.000    22000679.080    91471513.75907        45.450
R10  21857726.700   116513996.77307        46.000
R12  22560666.340   120515021.32007        43.800    22560670.440    93733917.23407        42.550    22560670.460    93733918.24307        42.450
R20  20875682.360   111631670.81306        37.100    20875687.060    86824658.45908        48.000    20875688.340    86824670.46608        48.100
R21  20188953.000   108035191.04708        49.700    20188956.100    84027388.97608        49.250    20188956.160    84027390.98108        49.600    20188946.980    80948098.29809        55.450
E02  27564357.940   144851679.29046        41.250    27564360.600   108168467.57506        36.750    27564357.680   117574414.40505        35.350    27564360.020   110990253.15607        42.750    27564361.040   109579358.76107        43.300
E11  22359658.500   117500809.29348        51.000    22359658.060    87744114.27807        45.450    22359654.940    95374018.93007        46.000    22359657.680    90033094.21908        51.750    22359658.980    88888619.64008        52.250
E12  22637910.720   118963035.74048        49.550    22637910.920    88836034.02807        45.300    22637907.360    96560890.32507        45.700    22637910.700    91153529.93808        51.750    22637911.760    89994796.87308        52.200
E24  24873718.720   130712303.47248        52.200    24873721.040    97609862.10207        47.150    24873718.280   106097654.62107        46.600    24873720.300   100156202.70008        53.350    24873721.620    98883025.79208        53.900
E25  24380094.520   128118266.92748        53.000    24380097.940    95672748.26308        48.050    24380092.900   103992092.24408        48.000    24380097.560    98168559.28509        54.350    24380098.760    96920641.66509        54.850
E31  28210112.020   148245202.28046        39.350    28210115.980   110702554.47216        36.000    28210111.880   120328846.58005        32.700    28210116.820   113590527.70106        36.850    28210118.900   112146575.94906        38.200
E33  28337161.620   148912821.52246        41.600    28337163.840   111201114.62716        36.950    28337164.460   120870782.56115        30.800    28337164.300   114102119.62806        38.900    28337164.440   112651661.01106        40.200
E36  27573057.880   144897402.47947        43.100    27573063.100   108202621.49806        38.650    27573057.960   117611523.58906        36.750    27573062.820   111025299.94807        45.000    27573063.480   109613964.10907        45.400
C05  40592850.940   211377626.73115        35.250                                                    40592850.440   163450586.95506        38.800
C11  21920601.140   114146350.67608        50.700    21920594.920    92753248.96708        50.100    21920601.040    88265203.51009        54.750
C14  26266641.300   136777303.07005        34.500    26266633.780   111142735.14606        37.600    26266640.940   105764890.84506        41.600
C21  24371646.200   126909575.56307        46.650    24371638.260   103124388.46407        44.400
C22  26108155.560   135952026.07907        43.300    26108145.180   110472122.62706        38.050
C23  23747106.940   123657415.65108        49.700    23747095.020   100481715.52207        46.950
C25  24686506.700   128549139.58207        43.700    24686502.440   104456690.75506        41.250
C28  26102520.260   135922658.68606        41.100    26102517.140   110448296.86106        36.600
C34  22415840.060   116725197.93308        52.550    22415837.240    94848814.99308        49.700
C37  25906024.620   134899463.48706        41.700    25906024.280   109616863.02106        39.500
C42  25377287.700   132146215.57807        43.200    25377293.700   107379650.36206        40.900
C43  22519547.020   117265220.43008        53.100    22519543.360    95287590.18008        48.850
C44  26063040.920   135717244.37406        40.000    26063036.320   110281352.96005        35.350
C58  32435188.920   168898552.05907        46.850
> 2021 12 21 00 04 30.0000000  0 38
G01  24415378.520   128303679.77006        38.600    24415382.180    99976909.03706        41.100    24415382.120    99976909.01906        37.750    24415380.460    95811204.16406        39.800
G07  23825171.400   125202107.84007        42.400    23825171.260    97560085.19807        42.300    23825171.040    97560073.18207        42.250
G08  20903586.240   109849106.58108        52.700    20903588.820    85596728.23008        53.150    20903588.160    85596725.21808        50.800    20903586.260    82030189.19808        50.350
G10  21724493.120   114163007.91808        52.550    21724495.060    88958204.44508        51.600    21724495.160    88958208.43808        52.600    21724492.600    85251603.05708        48.600
G16  21519095.060   113083615.21708        51.350                                                    21519094.240    88117090.88508        48.550
G18  25278184.440   132837746.59606        38.250    25278184.800   103509937.25206        40.500    25278184.840   103509966.27905        34.700    25278188.240    99197036.84606        37.300
G21  21992120.080   115569392.43208        49.150                                                    21992119.120    90054070.78207        45.250
G23  22784395.540   119732817.67607        45.550    22784396.020    93298309.10408        48.300    22784395.760    93298309.10007        44.150    22784398.660    89410892.18907        44.600
G26  24166048.720   126993493.16006        41.550    24166051.480    98956000.52507        42.200    24166050.900    98956005.50907        42.000    24166047.880    94832830.75806        38.300
G30  25010298.220   131429998.70006        39.700    25010300.340   102412993.13506        40.750    25010299.720   102412994.11406        39.100    25010298.960    98145782.05806        38.600
R04  22966897.680   122986719.35606        38.900    22966901.780    95656343.83506        41.550    22966901.440    95656338.82607        42.850
R05  21989615.500   117547097.79307        43.850    21989619.740    91425542.86407        45.200    21989619.920    91425533.86607        45.600
R10  21880670.860   116636302.25707        45.200
R12  22542330.820   120417076.32807        44.300    22542334.900    93657737.78707        42.700    22542334.880    93657738.78807        43.250
R20  20888646.560   111700995.78106        37.150    20888651.240    86878577.86808        48.400    20888652.460    86878589.87508        48.400
R21  20182831.500   108002433.89408        50.100    20182834.580    84001911.18608        49.600    20182834.660    84001913.19208        49.800    20182825.520    80923554.17009        55.350
E02  27548943.700   144770677.28346        41.500    27548946.280   108107979.09806        36.900    27548943.340   117508666.05705        35.200    27548945.600   110928186.69507        42.250    27548946.900   109518081.28807        43.100
E11  22354048.040   117471326.16948        50.950    22354047.560    87722097.67107        45.200    22354044.460    95350087.83307        45.850    22354047.180    90010503.26308        51.450    22354048.520    88866315.85508        52.150
E12  22646399.360   119007643.96248        49.600    22646399.480    88869345.34407        44.950    22646396.040    96597098.28707        45.400    22646399.300    91187710.25008        51.400    22646400.420    90028542.68908        52.050
E24  24886390.500   130778894.53048        52.550    24886392.860    97659589.18707        47.100    24886390.080   106151705.81107        46.350    24886392.260   100207227.00708        53.050    24886393.460    98933401.48508        53.750
E25  24375902.860   128096239.66048        52.850    24375906.300    95656299.32607        47.900    24375901.260   103974212.95907        47.800    24375905.920    98151681.24109        54.100    24375907.120    96903978.17209        54.850
E31  28228341.600   148340998.68746        39.450    28228346.740   110774090.60206        36.250    28228341.020   120406603.39705        34.550    28228345.960   113663930.15506        40.600    28228348.540   112219045.27906        41.650
E33  28351737.900   148989418.77746        41.700    28351740.840   111258313.82106        38.350    28351738.700   120932953.77015        34.250    28351739.020   114160811.17806        40.000    28351740.420   112709606.41906        41.750
E36  27559325.500   144825238.95246        41.350    27559330.660   108148733.15206        38.050    27559325.820   117552949.31506        37.050    27559330.700   110970005.83107        43.950    27559331.320   109559372.87407        44.700
C05  40592792.280   211377321.78415        35.550                                                    40592791.460   163450349.57606        38.200
C11  21921663.040   114151878.89608        50.950    21921656.540    92757741.08608        50.450    21921662.740    88269478.26809        54.600
C14  26247903.920   136679732.62606        39.750    26247896.220   111063451.31605        35.450    26247902.980   105689443.33705        33.750
C21  24365100.200   126875489.91707        46.700    24365092.560   103096691.08007        44.650
C22  26116684.260   135996439.63706        41.350    26116673.820   110508212.23506        39.850
C23  23751239.620   123678935.71208        49.750    23751227.620   100499202.31807        47.050
C25  24703591.520   128638104.59807        44.700    24703587.160   104528982.10107        42.050
C28  26087718.600   135845583.19906        40.550    26087715.600   110385666.76006        36.600
C34  22423035.080   116762664.00408        52.650    22423032.240    94879259.24608        50.050
C37  25895170.780   134842944.91506        41.550    25895170.580   109570937.06906        39.850
C42  25359795.660   132055127.63707        44.800    25359801.320   107305633.97806        41.850
C43  22512881.480   117230511.27908        53.150    22512877.880    95259386.14808        49.250
C44  26078075.480   135795533.82006        40.750    26078070.780   110344969.54205        35.650
C58  32422932.140   168834727.70307        46.650
> 2021 12 21 00 05  0.0000000  0 38
G01  24394973.120   128196447.80806        40.250    24394976.800    99893351.72307        42.050    24394976.960    99893351.72106        37.100    24394975.220    95731128.44506        38.650
G07  23826388.440   125208503.26607        42.950    23826388.220    97565068.62806        41.850    23826388.020    97565056.62406        41.000
G08  20895302.060   109805572.91108        52.800    20895304.640    85562805.88908        53.150    20895303.960    85562802.87808        50.500    20895302.120    81997680.29008        50.650
G10  21722622.760   114153179.02108        52.550    21722624.700    88950545.57008        51.600    21722624.780    88950549.56308        52.550    21722622.120    85244263.30808        48.650
G16  21533920.780   113161525.10708        51.250                                                    21533920.040    88177799.88207        47.800
G18  25297642.120   132939998.18006        37.500    25297642.840   103589613.68406        40.800    25297643.040   103589642.67606        37.250    25297645.440    99273393.55205        33.550
G21  21980216.940   115506841.69808        48.600                                                    21980216.020    90005329.97307        44.100
G23  22794991.860   119788501.73107        45.700    22794992.320    93341699.26507        47.300    22794992.140    93341699.26907        44.150    22794994.980    89452474.44907        44.750
G26  24186987.040   127103524.27507        42.250    24186989.840    99041739.02207        42.750    24186989.280    99041743.99907        42.000    24186986.420    94914996.76006        39.600
G30  25004210.820   131398010.03506        39.200    25004213.140   102388066.91506        40.750    25004212.700   102388067.89606        37.300    25004211.760    98121894.43006        39.050
R04  22974982.180   123030009.71406        40.700    22974986.120    95690014.12106        41.150    22974985.900    95690009.12106        41.950
R05  21978679.300   117488637.40207        43.900    21978683.320    91380073.70507        45.200    21978683.580    91380064.70507        45.600
R10  21903673.180   116758918.20307        43.700
R12  22524089.200   120319632.71807        43.800    22524093.140    93581948.30107        42.800    22524093.240    93581949.29307        44.550
R20  20901642.340   111770491.22306        36.150    20901647.280    86932629.86508        48.050    20901648.540    86932641.86608        48.200
R21  20176770.800   107970001.69308        49.000    20176773.920    83976686.14308        49.400    20176773.940    83976688.15008        49.850    20176764.840    80899253.52909        55.650
E02  27533559.600   144689833.42646        41.750    27533562.200   108047608.67406        37.150    27533559.480   117443045.99205        35.250    27533561.440   110866241.38607        42.850    27533562.740   109456923.42307        43.650
E11  22348482.200   117442077.57748        51.000    22348481.660    87700256.19607        45.600    22348478.640    95326347.10607        46.000    22348481.360    89988092.01308        51.650    22348482.680    88844189.49508        52.400
E12  22654917.120   119052405.02048        49.800    22654917.140    88902770.81507        45.250    22654913.640    96633430.31207        45.450    22654917.020    91222007.67908        51.650    22654918.180    90062404.13908        52.300
E24  24899119.980   130845788.40748        52.750    24899122.240    97709542.39107        47.150    24899119.460   106206002.78307        46.650    24899121.700   100258483.35008        53.200    24899122.960    98984006.26508        53.900
E25  24371787.900   128074615.52848        52.850    24371791.400    95640151.43108        48.100    24371786.360   103956660.89907        47.950    24371791.000    98135112.09909        54.300    24371792.200    96887619.65309        55.000
E31  28246575.240   148436814.73946        41.700    28246580.240   110845641.54705        33.200    28246574.620   120484376.12605        34.550    28246579.620   113737347.54106        40.300    28246581.940   112291529.40306        40.550
E33  28366305.920   149065975.80246        37.650    28366309.620   111315482.94405        33.850    28366306.640   120995094.10405        35.600    28366307.000   114219471.63107        43.150    28366309.120   112767521.18807        43.250
E36  27545614.340   144753186.67047        43.600    27545619.380   108094927.88606        39.050    27545614.900   117494465.34706        37.500    27545619.360   110914796.95107        43.800    27545620.360   109504865.81207        44.900
C05  40592734.000   211377017.48215        35.250                                                    40592733.180   163450115.08006        38.800
C11  21922764.600   114157614.18808        50.750    21922757.900    92762401.47408        50.050    21922764.200    88273913.16409        54.700
C14  26229151.740   136582082.60406        37.500    26229143.260   110984102.62605        35.000    26229150.180   105613934.07207        42.900
C21  24358642.020   126841862.07207        45.350    24358634.640   103069365.71007        44.250
C22  26125297.680   136041295.34707        42.200    26125289.080   110544661.14006        39.650
C23  23755465.680   123700941.92308        49.600    23755453.720   100517084.16007        46.750
C25  24720709.760   128727242.72207        45.850    24720705.400   104601414.09807        42.850
C28  26072925.700   135768553.46806        39.400    26072922.740   110323073.80506        37.350
C34  22430265.600   116800314.94508        52.700    22430262.740    94909853.71408        49.650
C37  25884392.940   134786821.47806        41.450    25884392.580   109525332.17706        39.600
C42  25342324.880   131964148.29507        44.700    25342330.080   107231705.81106        41.700
C43  22506254.220   117196001.39808        53.200    22506250.660    95231344.04408        48.950
C44  26093112.760   135873836.83906        39.750    26093108.220   110408597.14606        37.500
C58  32410698.640   168771024.90907        46.900
> 2021 12 21 00 05 30.0000000  0 38
G01  24374593.080   128089350.50306        38.500    24374596.840    99809899.32706        38.700    24374596.860    99809899.32505        34.450    24374594.480    95651153.14406        38.150
G07  23827703.000   125215411.40407        43.150    23827702.820    97570451.59507        42.300    23827702.560    97570439.58706        41.650
G08  20887067.800   109762301.67008        52.900    20887070.440    85529088.03908        53.350    20887069.740    85529085.02908        50.800    20887067.920    81965367.35408        51.050
G10  21720862.060   114143926.48808        52.650    21720863.960    88943335.80608        51.800    21720864.080    88943339.79908        52.550    21720861.440    85237353.95408        49.100
G16  21548822.200   113239832.78608        51.100                                                    21548821.420    88238818.85307        47.650
G18  25317094.620   133042220.52306        37.600    25317094.680   103669267.45205        34.950    25317094.580   103669296.46605        34.300    25317097.620    99349728.44416        36.800
G21  21968375.300   115444613.21508        49.900                                                    21968374.320    89956840.24607        44.400
G23  22805684.720   119844693.24507        46.350    22805685.260    93385484.88307        47.550    22805685.180    93385484.87507        43.700    22805687.900    89494435.65407        45.150
G26  24207941.880   127213641.51006        41.450    24207944.660    99127544.63906        41.750    24207944.340    99127549.64106        40.700    24207942.100    94997227.16006        39.150
G30  24998219.500   131366525.96406        39.550    24998221.840   102363533.86006        40.750    24998221.480   102363534.86206        38.100    24998220.360    98098383.60006        39.400
R04  22983201.600   123074025.89606        39.550    22983205.480    95724248.89406        40.550    22983205.380    95724243.90206        41.650
R05  21967866.080   117430834.62707        43.800    21967870.200    91335115.99107        45.350    21967870.360    91335106.99507        45.600
R10  21926732.600   116881838.45507        43.200
R12  22505941.820   120222692.03107        44.600    22505945.660    93506549.99207        42.600    22505945.720    93506550.99707        43.500
R20  20914669.400   111840153.12506        36.350    20914674.400    86986811.34508        48.100    20914675.640    86986823.34608        48.700
R21  20170770.220   107937891.35008        49.300    20170773.300    83951711.43608        49.550    20170773.380    83951713.44408        50.100    20170764.260    80875194.04609        56.100
E02  27518205.360   144609146.68146        41.950    27518208.000   107987355.59906        37.550    27518205.420   117377553.56205        35.150    27518207.420   110804416.51207        42.950    27518208.540   109395884.45307        44.100
E11  22342960.440   117413060.48048        51.150    22342959.880    87678587.59007        45.950    22342956.780    95302794.25407        45.850    22342959.560    89965858.13108        51.700    22342960.920    88822238.24408        52.850
E12  22663463.360   119097315.33048        49.900    22663463.280    88936307.74307        45.650    22663459.800    96669883.49507        45.300    22663463.200    91256419.48408        51.700    22663464.340    90096378.50308        52.750
E24  24911906.480   130912981.19848        53.000    24911908.500    97759718.83407        47.250    24911905.760   106260542.39007        46.350    24911907.980   100309968.73708        53.100    24911909.340    99034837.17309        54.200
E25  24367749.340   128053392.79448        53.000    24367752.840    95624303.28208        48.550    24367747.820   103939434.65607        47.850    24367752.440    98118850.52009        54.400    24367753.660    96871564.79209        55.450
E31  28264811.640   148532646.50146        40.550    28264816.360   110917204.13205        35.850                                                    28264813.780   113810777.00006        36.600    28264817.880   112364025.45506        39.200
E33  28380865.560   149142489.28746        41.350    28380867.920   111372624.74815        34.850    28380866.420   121057199.18005        30.350    28380867.420   114278098.77206        39.950    28380869.020   112825403.11606        40.350
E36  27531924.420   144681243.26647        43.300    27531929.000   108041203.92106        39.600    27531924.820   117436069.75906        36.650    27531928.660   110859671.49407        43.800    27531930.020   109450441.09807        45.350
C05                                                                                                  40592675.160   163449881.30006        38.500
C11  21923905.120   114163553.81208        50.350    21923898.560    92767227.92108        50.250    21923904.860    88278506.05709        54.700
C14  26210383.840   136484352.52906        40.100    26210376.200   110904689.04606        38.800    26210382.720   105538363.16106        39.700
C21  24352271.660   126808690.82707        45.100    24352264.360   103042411.36607        44.500
C22  26133996.140   136086589.31906        41.200    26133987.900   110581466.19306        36.400
C23  23759784.400   123723430.82108        49.700    23759772.480   100535358.22207        46.950
C25  24737860.400   128816548.87107        47.150    24737855.920   104673982.62607        43.300
C28  26058141.380   135691566.91806        41.000    26058138.240   110260515.92706        36.900
C34  22437531.040   116838147.80008        52.550    22437528.160    94940596.00808        49.700
C37  25873690.700   134731092.07206        41.100    25873690.460   109480047.45306        39.800
C42  25324873.960   131873277.38207        43.850    25324879.120   107157865.76306        41.100
C43  22499664.700   117161688.26708        53.200    22499661.240    95203461.82508        49.050
C44  26108151.860   135952150.81106        39.950    26108147.880   110472233.57205        35.300
C58  32398488.080   168707441.28507        47.100
> 2021 12 21 00 06  0.0000000  0 38
G01  24354239.940   127982393.85906        39.750    24354243.220    99726556.44506        39.000    24354243.460    99726556.44306        37.900    24354241.300    95571282.96806        39.450
G07  23829115.880   125222836.42207        43.050    23829115.820    97576237.31307        42.100    23829115.540    97576225.29906        40.150
G08  20878884.520   109719298.25308        53.000    20878887.160    85495578.88308        53.250    20878886.460    85495575.87208        50.750    20878884.640    81933254.41908        49.850
G10  21719211.980   114135255.31408        52.450    21719213.880    88936579.05408        51.600    21719214.000    88936583.04408        52.400    21719211.380    85230878.73307        47.900
G16  21563800.000   113318541.61508        50.900                                                    21563799.200    88300150.38507        47.950
G18  25336541.940   133144417.47005        34.650    25336541.980   103748901.45906        40.300    25336541.700   103748930.45505        31.600    25336545.320    99426044.21706        37.250
G21  21956595.760   115382711.84508        48.650                                                    21956594.780    89908605.42307        44.100
G23  22816474.780   119901394.94907        46.100    22816475.220    93429668.02707        47.650    22816474.920    93429668.01407        44.500    22816477.860    89536777.84707        43.700
G26  24228913.180   127323847.57006        41.550    24228916.260    99213419.47906        41.350    24228915.960    99213424.47006        41.050    24228913.780    95079523.92506        39.400
G30  24992325.440   131335551.89206        40.200    24992327.600   102339398.22606        41.100    24992327.020   102339399.21106        39.000    24992326.320    98075253.63006        38.500
R04  22991557.980   123118770.64306        38.850    22991560.120    95759050.44306        39.400    22991560.340    95759045.45406        38.850
R05  21957177.380   117373697.46707        43.800    21957181.660    91290676.00407        45.550    21957181.800    91290667.00407        45.400
R10  21949849.180   117005063.35207        42.550
R12  22487889.900   120126262.64307        44.150    22487893.940    93431549.36607        42.800    22487893.980    93431550.36607        43.000
R20  20927728.340   111909984.73406        36.950    20927733.320    87041124.80908        48.050    20927734.480    87041136.81808        48.400
R21  20164830.640   107906107.23908        49.900    20164833.660    83926990.46008        49.550    20164833.760    83926992.47008        50.000    20164824.640    80851379.00909        55.850
E02  27502882.280   144528623.43147        42.200    27502884.900   107927224.62406        36.550    27502882.100   117312193.76405        35.550    27502884.300   110742716.89907        42.850    27502885.520   109334969.15107        44.000
E11  22337483.540   117384279.16548        50.950    22337482.960    87657095.06007        44.650    22337479.840    95279432.81107        46.000    22337482.660    89943804.93408        51.700    22337484.000    88800465.39008        52.700
E12  22672038.620   119142378.50848        49.700    22672038.600    88969958.81707        44.350    22672035.040    96706460.74507        45.400    22672038.560    91290948.41808        51.600    22672039.580    90130468.51008        52.550
E24  24924750.400   130980476.35148        52.350    24924752.360    97810121.07007        45.900    24924749.820   106315327.41207        46.800    24924751.800   100361685.81208        52.750    24924753.240    99085896.83108        53.750
E25  24363788.240   128032576.97948        52.950    24363791.720    95608759.01207        47.350    24363786.720   103922538.70008        48.200    24363791.320    98102900.74709        54.200    24363792.540    96855817.76709        55.250
E31  28283051.380   148628496.91146        39.400    28283056.060   110988780.66805        32.450    28283052.340   120639959.24215        35.950    28283054.100   113884220.83106        41.150    28283058.000   112436535.65006        41.850
E33  28395418.040   149218963.42246        39.800    28395420.780   111429732.02906        37.100    28395417.900   121119263.38315        33.900    28395420.300   114336695.93106        38.650    28395421.300   112883255.38206        41.200
E36  27518255.320   144609413.50546        40.850    27518260.320   107987564.86906        37.450    27518255.540   117377766.40805        35.950    27518259.300   110804633.14607        43.650    27518261.200   109396102.39807        44.850
C05  40592619.020   211376419.43015        34.800                                                    40592618.200   163449651.86706        38.600
C11  21925085.660   114169702.09708        50.300    21925079.320    92772223.90808        50.100    21925085.560    88283260.31509        54.400
C14  26191602.400   136386549.16906        39.650    26191593.680   110825215.85405        32.100    26191599.200   105462735.31106        36.750
C21  24345990.380   126775982.23307        45.450    24345982.960   103015832.93407        44.350
C22  26142778.660   136132324.93607        43.300    26142767.560   110618630.19906        37.500
C23  23764196.500   123746406.03408        49.600    23764184.620   100554027.46607        46.700
C25  24755043.780   128906025.18107        46.600    24755039.120   104746689.44607        43.350
C28  26043366.040   135614628.26406        40.000    26043363.120   110197996.99806        36.000
C34  22444832.180   116876166.80208        52.350    22444829.280    94971489.54608        49.350
C37  25863065.360   134675762.90906        40.500    25863065.100   109435088.00306        39.800
C42  25307445.220   131782522.02107        43.850    25307450.180   107084119.60806        41.050
C43  22493113.880   117127576.60008        53.050    22493110.460    95175743.30608        48.850
C44  26123194.040   136030479.92806        40.050    26123189.840   110535882.49805        35.550
C58  32386301.220   168643981.53307        46.700
